[
  {
    "country_code": "AT",
    "zipcode": "7000",
    "place": "Eisenstadt",
    "state": "Burgenland",
    "state_code": "01",
    "province": "Eisenstadt Stadt",
    "province_code": "101",
    "community": "Eisenstadt",
    "community_code": "10101",
    "latitude": "47.8457",
    "longitude": "16.5233"
  },
  {
    "country_code": "AT",
    "zipcode": "7000",
    "place": "Sankt Georgen am Leithagebirge",
    "state": "Burgenland",
    "state_code": "01",
    "province": "Eisenstadt Stadt",
    "province_code": "101",
    "community": "Eisenstadt",
    "community_code": "10101",
    "latitude": "47.85",
    "longitude": "16.55"
  },
  {
    "country_code": "AT",
    "zipcode": "7000",
    "place": "Kleinhöflein im Burgenland",
    "state": "Burgenland",
    "state_code": "01",
    "province": "Eisenstadt Stadt",
    "province_code": "101",
    "community": "Eisenstadt",
    "community_code": "10101",
    "latitude": "47.8415",
    "longitude": "16.5041"
  },
  {
    "country_code": "AT",
    "zipcode": "7071",
    "place": "Rust",
    "state": "Burgenland",
    "state_code": "01",
    "province": "Rust Stadt",
    "province_code": "102",
    "community": "Rust",
    "community_code": "10201",
    "latitude": "47.8012",
    "longitude": "16.6716"
  },
  {
    "country_code": "AT",
    "zipcode": "2443",
    "place": "Loretto",
    "state": "Burgenland",
    "state_code": "01",
    "province": "Eisenstadt-Umgebung",
    "province_code": "103",
    "community": "Loretto",
    "community_code": "10320",
    "latitude": "47.9156",
    "longitude": "16.5179"
  },
  {
    "country_code": "AT",
    "zipcode": "2443",
    "place": "Leithaprodersdorf",
    "state": "Burgenland",
    "state_code": "01",
    "province": "Eisenstadt-Umgebung",
    "province_code": "103",
    "community": "Leithaprodersdorf",
    "community_code": "10306",
    "latitude": "47.9335",
    "longitude": "16.4791"
  },
  {
    "country_code": "AT",
    "zipcode": "2443",
    "place": "Stotzing",
    "state": "Burgenland",
    "state_code": "01",
    "province": "Eisenstadt-Umgebung",
    "province_code": "103",
    "community": "Stotzing",
    "community_code": "10321",
    "latitude": "47.9",
    "longitude": "16.55"
  },
  {
    "country_code": "AT",
    "zipcode": "2485",
    "place": "Wimpassing an der Leitha",
    "state": "Burgenland",
    "state_code": "01",
    "province": "Eisenstadt-Umgebung",
    "province_code": "103",
    "community": "Wimpassing an der Leitha",
    "community_code": "10318",
    "latitude": "47.9167",
    "longitude": "16.4333"
  },
  {
    "country_code": "AT",
    "zipcode": "2491",
    "place": "Steinbrunn / Štikapron",
    "state": "Burgenland",
    "state_code": "01",
    "province": "Eisenstadt-Umgebung",
    "province_code": "103",
    "community": "Steinbrunn",
    "community_code": "10316",
    "latitude": "47.8333",
    "longitude": "16.4167"
  },
  {
    "country_code": "AT",
    "zipcode": "2491",
    "place": "Neufeld an der Leitha",
    "state": "Burgenland",
    "state_code": "01",
    "province": "Eisenstadt-Umgebung",
    "province_code": "103",
    "community": "Neufeld an der Leitha",
    "community_code": "10309",
    "latitude": "47.8656",
    "longitude": "16.3786"
  },
  {
    "country_code": "AT",
    "zipcode": "2491",
    "place": "Hornstein / Vorištan",
    "state": "Burgenland",
    "state_code": "01",
    "province": "Eisenstadt-Umgebung",
    "province_code": "103",
    "community": "Hornstein",
    "community_code": "10304",
    "latitude": "47.8805",
    "longitude": "16.4445"
  },
  {
    "country_code": "AT",
    "zipcode": "7011",
    "place": "Siegendorf / Cindrof",
    "state": "Burgenland",
    "state_code": "01",
    "province": "Eisenstadt-Umgebung",
    "province_code": "103",
    "community": "Siegendorf",
    "community_code": "10315",
    "latitude": "47.781",
    "longitude": "16.5423"
  },
  {
    "country_code": "AT",
    "zipcode": "7012",
    "place": "Zagersdorf / Cogrštof",
    "state": "Burgenland",
    "state_code": "01",
    "province": "Eisenstadt-Umgebung",
    "province_code": "103",
    "community": "Zagersdorf",
    "community_code": "10323",
    "latitude": "47.7647",
    "longitude": "16.5138"
  },
  {
    "country_code": "AT",
    "zipcode": "7013",
    "place": "Klingenbach / Klimpuh",
    "state": "Burgenland",
    "state_code": "01",
    "province": "Eisenstadt-Umgebung",
    "province_code": "103",
    "community": "Klingenbach",
    "community_code": "10305",
    "latitude": "47.7728",
    "longitude": "16.5281"
  },
  {
    "country_code": "AT",
    "zipcode": "7033",
    "place": "Zillingtal / Celindof",
    "state": "Burgenland",
    "state_code": "01",
    "province": "Eisenstadt-Umgebung",
    "province_code": "103",
    "community": "Zillingtal",
    "community_code": "10322",
    "latitude": "47.7997",
    "longitude": "16.3994"
  },
  {
    "country_code": "AT",
    "zipcode": "7034",
    "place": "Zillingtal / Celindof",
    "state": "Burgenland",
    "state_code": "01",
    "province": "Eisenstadt-Umgebung",
    "province_code": "103",
    "community": "Zillingtal",
    "community_code": "10322",
    "latitude": "47.7997",
    "longitude": "16.3994"
  },
  {
    "country_code": "AT",
    "zipcode": "7035",
    "place": "Steinbrunn / Štikapron",
    "state": "Burgenland",
    "state_code": "01",
    "province": "Eisenstadt-Umgebung",
    "province_code": "103",
    "community": "Steinbrunn",
    "community_code": "10316",
    "latitude": "47.8333",
    "longitude": "16.4167"
  },
  {
    "country_code": "AT",
    "zipcode": "7035",
    "place": "Zillingtal / Celindof",
    "state": "Burgenland",
    "state_code": "01",
    "province": "Eisenstadt-Umgebung",
    "province_code": "103",
    "community": "Zillingtal",
    "community_code": "10322",
    "latitude": "47.7997",
    "longitude": "16.3994"
  },
  {
    "country_code": "AT",
    "zipcode": "7041",
    "place": "Wulkaprodersdorf / Vulkaprodrštof",
    "state": "Burgenland",
    "state_code": "01",
    "province": "Eisenstadt-Umgebung",
    "province_code": "103",
    "community": "Wulkaprodersdorf",
    "community_code": "10319",
    "latitude": "47.7975",
    "longitude": "16.5045"
  },
  {
    "country_code": "AT",
    "zipcode": "7051",
    "place": "Großhöflein",
    "state": "Burgenland",
    "state_code": "01",
    "province": "Eisenstadt-Umgebung",
    "province_code": "103",
    "community": "Großhöflein",
    "community_code": "10303",
    "latitude": "47.8359",
    "longitude": "16.4804"
  },
  {
    "country_code": "AT",
    "zipcode": "7052",
    "place": "Müllendorf",
    "state": "Burgenland",
    "state_code": "01",
    "province": "Eisenstadt-Umgebung",
    "province_code": "103",
    "community": "Müllendorf",
    "community_code": "10308",
    "latitude": "47.8394",
    "longitude": "16.4626"
  },
  {
    "country_code": "AT",
    "zipcode": "7053",
    "place": "Hornstein / Vorištan",
    "state": "Burgenland",
    "state_code": "01",
    "province": "Eisenstadt-Umgebung",
    "province_code": "103",
    "community": "Hornstein",
    "community_code": "10304",
    "latitude": "47.8805",
    "longitude": "16.4445"
  },
  {
    "country_code": "AT",
    "zipcode": "7061",
    "place": "Trausdorf an der Wulka / Trajštof",
    "state": "Burgenland",
    "state_code": "01",
    "province": "Eisenstadt-Umgebung",
    "province_code": "103",
    "community": "Trausdorf an der Wulka",
    "community_code": "10317",
    "latitude": "47.8219",
    "longitude": "16.6317"
  },
  {
    "country_code": "AT",
    "zipcode": "7062",
    "place": "Sankt Margarethen im Burgenland",
    "state": "Burgenland",
    "state_code": "01",
    "province": "Eisenstadt-Umgebung",
    "province_code": "103",
    "community": "Sankt Margarethen im Burgenland",
    "community_code": "10313",
    "latitude": "47.8034",
    "longitude": "16.6088"
  },
  {
    "country_code": "AT",
    "zipcode": "7063",
    "place": "Oggau am Neusiedler See",
    "state": "Burgenland",
    "state_code": "01",
    "province": "Eisenstadt-Umgebung",
    "province_code": "103",
    "community": "Oggau am Neusiedler See",
    "community_code": "10310",
    "latitude": "47.8333",
    "longitude": "16.6667"
  },
  {
    "country_code": "AT",
    "zipcode": "7064",
    "place": "Oslip / Uzlop",
    "state": "Burgenland",
    "state_code": "01",
    "province": "Eisenstadt-Umgebung",
    "province_code": "103",
    "community": "Oslip",
    "community_code": "10311",
    "latitude": "47.8291",
    "longitude": "16.6196"
  },
  {
    "country_code": "AT",
    "zipcode": "7072",
    "place": "Mörbisch am See",
    "state": "Burgenland",
    "state_code": "01",
    "province": "Eisenstadt-Umgebung",
    "province_code": "103",
    "community": "Mörbisch am See",
    "community_code": "10307",
    "latitude": "47.75",
    "longitude": "16.6667"
  },
  {
    "country_code": "AT",
    "zipcode": "7081",
    "place": "Schützen am Gebirge",
    "state": "Burgenland",
    "state_code": "01",
    "province": "Eisenstadt-Umgebung",
    "province_code": "103",
    "community": "Schützen am Gebirge",
    "community_code": "10314",
    "latitude": "47.8523",
    "longitude": "16.6233"
  },
  {
    "country_code": "AT",
    "zipcode": "7082",
    "place": "Donnerskirchen",
    "state": "Burgenland",
    "state_code": "01",
    "province": "Eisenstadt-Umgebung",
    "province_code": "103",
    "community": "Donnerskirchen",
    "community_code": "10302",
    "latitude": "47.8942",
    "longitude": "16.6463"
  },
  {
    "country_code": "AT",
    "zipcode": "7083",
    "place": "Purbach am Neusiedler See",
    "state": "Burgenland",
    "state_code": "01",
    "province": "Eisenstadt-Umgebung",
    "province_code": "103",
    "community": "Purbach am Neusiedler See",
    "community_code": "10312",
    "latitude": "47.9129",
    "longitude": "16.6956"
  },
  {
    "country_code": "AT",
    "zipcode": "7091",
    "place": "Breitenbrunn",
    "state": "Burgenland",
    "state_code": "01",
    "province": "Eisenstadt-Umgebung",
    "province_code": "103",
    "community": "Breitenbrunn am Neusiedler See",
    "community_code": "10301",
    "latitude": "47.9445",
    "longitude": "16.7315"
  },
  {
    "country_code": "AT",
    "zipcode": "7521",
    "place": "Kulm im Burgenland",
    "state": "Burgenland",
    "state_code": "01",
    "province": "Politischer Bezirk Güssing",
    "province_code": "104",
    "community": "Eberau",
    "community_code": "10403",
    "latitude": "47.104",
    "longitude": "16.4524"
  },
  {
    "country_code": "AT",
    "zipcode": "7521",
    "place": "Gaas",
    "state": "Burgenland",
    "state_code": "01",
    "province": "Politischer Bezirk Güssing",
    "province_code": "104",
    "community": "Eberau",
    "community_code": "10403",
    "latitude": "47.0824",
    "longitude": "16.463"
  },
  {
    "country_code": "AT",
    "zipcode": "7521",
    "place": "Winten",
    "state": "Burgenland",
    "state_code": "01",
    "province": "Politischer Bezirk Güssing",
    "province_code": "104",
    "community": "Eberau",
    "community_code": "10403",
    "latitude": "47.1171",
    "longitude": "16.4445"
  },
  {
    "country_code": "AT",
    "zipcode": "7521",
    "place": "Unterbildein",
    "state": "Burgenland",
    "state_code": "01",
    "province": "Politischer Bezirk Güssing",
    "province_code": "104",
    "community": "Bildein",
    "community_code": "10426",
    "latitude": "47.1284",
    "longitude": "16.4679"
  },
  {
    "country_code": "AT",
    "zipcode": "7521",
    "place": "Eberau",
    "state": "Burgenland",
    "state_code": "01",
    "province": "Politischer Bezirk Güssing",
    "province_code": "104",
    "community": "Eberau",
    "community_code": "10403",
    "latitude": "47.1076",
    "longitude": "16.4604"
  },
  {
    "country_code": "AT",
    "zipcode": "7521",
    "place": "Oberbildein",
    "state": "Burgenland",
    "state_code": "01",
    "province": "Politischer Bezirk Güssing",
    "province_code": "104",
    "community": "Bildein",
    "community_code": "10426",
    "latitude": "47.1333",
    "longitude": "16.4667"
  },
  {
    "country_code": "AT",
    "zipcode": "7522",
    "place": "Steinfurt",
    "state": "Burgenland",
    "state_code": "01",
    "province": "Politischer Bezirk Güssing",
    "province_code": "104",
    "community": "Strem",
    "community_code": "10416",
    "latitude": "47.0667",
    "longitude": "16.4167"
  },
  {
    "country_code": "AT",
    "zipcode": "7522",
    "place": "Deutsch Ehrensdorf",
    "state": "Burgenland",
    "state_code": "01",
    "province": "Politischer Bezirk Güssing",
    "province_code": "104",
    "community": "Strem",
    "community_code": "10416",
    "latitude": "47.0979",
    "longitude": "16.4142"
  },
  {
    "country_code": "AT",
    "zipcode": "7522",
    "place": "Luising",
    "state": "Burgenland",
    "state_code": "01",
    "province": "Politischer Bezirk Güssing",
    "province_code": "104",
    "community": "Heiligenbrunn",
    "community_code": "10407",
    "latitude": "47.0139",
    "longitude": "16.4794"
  },
  {
    "country_code": "AT",
    "zipcode": "7522",
    "place": "Deutsch Bieling",
    "state": "Burgenland",
    "state_code": "01",
    "province": "Politischer Bezirk Güssing",
    "province_code": "104",
    "community": "Heiligenbrunn",
    "community_code": "10407",
    "latitude": "47.0167",
    "longitude": "16.4333"
  },
  {
    "country_code": "AT",
    "zipcode": "7522",
    "place": "Heiligenbrunn",
    "state": "Burgenland",
    "state_code": "01",
    "province": "Politischer Bezirk Güssing",
    "province_code": "104",
    "community": "Heiligenbrunn",
    "community_code": "10407",
    "latitude": "47.027",
    "longitude": "16.4169"
  },
  {
    "country_code": "AT",
    "zipcode": "7522",
    "place": "Sumetendorf",
    "state": "Burgenland",
    "state_code": "01",
    "province": "Politischer Bezirk Güssing",
    "province_code": "104",
    "community": "Strem",
    "community_code": "10416",
    "latitude": "47.0445",
    "longitude": "16.3935"
  },
  {
    "country_code": "AT",
    "zipcode": "7522",
    "place": "Reinersdorf",
    "state": "Burgenland",
    "state_code": "01",
    "province": "Politischer Bezirk Güssing",
    "province_code": "104",
    "community": "Heiligenbrunn",
    "community_code": "10407",
    "latitude": "47.0104",
    "longitude": "16.3888"
  },
  {
    "country_code": "AT",
    "zipcode": "7522",
    "place": "Kroatisch Ehrensdorf",
    "state": "Burgenland",
    "state_code": "01",
    "province": "Politischer Bezirk Güssing",
    "province_code": "104",
    "community": "Eberau",
    "community_code": "10403",
    "latitude": "47.1175",
    "longitude": "16.4024"
  },
  {
    "country_code": "AT",
    "zipcode": "7522",
    "place": "Hagensdorf im Burgenland",
    "state": "Burgenland",
    "state_code": "01",
    "province": "Politischer Bezirk Güssing",
    "province_code": "104",
    "community": "Heiligenbrunn",
    "community_code": "10407",
    "latitude": "47.0145",
    "longitude": "16.4554"
  },
  {
    "country_code": "AT",
    "zipcode": "7522",
    "place": "Strem",
    "state": "Burgenland",
    "state_code": "01",
    "province": "Politischer Bezirk Güssing",
    "province_code": "104",
    "community": "Strem",
    "community_code": "10416",
    "latitude": "47.045",
    "longitude": "16.4143"
  },
  {
    "country_code": "AT",
    "zipcode": "7533",
    "place": "Ollersdorf im Burgenland",
    "state": "Burgenland",
    "state_code": "01",
    "province": "Politischer Bezirk Güssing",
    "province_code": "104",
    "community": "Ollersdorf im Burgenland",
    "community_code": "10412",
    "latitude": "47.1833",
    "longitude": "16.1667"
  },
  {
    "country_code": "AT",
    "zipcode": "7534",
    "place": "Rauchwart",
    "state": "Burgenland",
    "state_code": "01",
    "province": "Politischer Bezirk Güssing",
    "province_code": "104",
    "community": "Rauchwart",
    "community_code": "10427",
    "latitude": "47.1333",
    "longitude": "16.2333"
  },
  {
    "country_code": "AT",
    "zipcode": "7534",
    "place": "Olbendorf",
    "state": "Burgenland",
    "state_code": "01",
    "province": "Politischer Bezirk Güssing",
    "province_code": "104",
    "community": "Olbendorf",
    "community_code": "10411",
    "latitude": "47.1833",
    "longitude": "16.2"
  },
  {
    "country_code": "AT",
    "zipcode": "7535",
    "place": "Gamischdorf",
    "state": "Burgenland",
    "state_code": "01",
    "province": "Politischer Bezirk Güssing",
    "province_code": "104",
    "community": "Sankt Michael im Burgenland",
    "community_code": "10413",
    "latitude": "47.1078",
    "longitude": "16.2591"
  },
  {
    "country_code": "AT",
    "zipcode": "7535",
    "place": "Schallendorf im Burgenland",
    "state": "Burgenland",
    "state_code": "01",
    "province": "Politischer Bezirk Güssing",
    "province_code": "104",
    "community": "Sankt Michael im Burgenland",
    "community_code": "10413",
    "latitude": "47.1167",
    "longitude": "16.25"
  },
  {
    "country_code": "AT",
    "zipcode": "7535",
    "place": "Rauchwart",
    "state": "Burgenland",
    "state_code": "01",
    "province": "Politischer Bezirk Güssing",
    "province_code": "104",
    "community": "Rauchwart",
    "community_code": "10427",
    "latitude": "47.1333",
    "longitude": "16.2333"
  },
  {
    "country_code": "AT",
    "zipcode": "7535",
    "place": "Sankt Michael im Burgenland",
    "state": "Burgenland",
    "state_code": "01",
    "province": "Politischer Bezirk Güssing",
    "province_code": "104",
    "community": "Sankt Michael im Burgenland",
    "community_code": "10413",
    "latitude": "47.1333",
    "longitude": "16.2667"
  },
  {
    "country_code": "AT",
    "zipcode": "7536",
    "place": "Güttenbach / Pinkovac",
    "state": "Burgenland",
    "state_code": "01",
    "province": "Politischer Bezirk Güssing",
    "province_code": "104",
    "community": "Güttenbach",
    "community_code": "10406",
    "latitude": "47.1667",
    "longitude": "16.3"
  },
  {
    "country_code": "AT",
    "zipcode": "7537",
    "place": "Neuberg im Burgenland / Nova Gora",
    "state": "Burgenland",
    "state_code": "01",
    "province": "Politischer Bezirk Güssing",
    "province_code": "104",
    "community": "Neuberg im Burgenland",
    "community_code": "10409",
    "latitude": "47.1591",
    "longitude": "16.2209"
  },
  {
    "country_code": "AT",
    "zipcode": "7540",
    "place": "Sankt Nikolaus",
    "state": "Burgenland",
    "state_code": "01",
    "province": "Politischer Bezirk Güssing",
    "province_code": "104",
    "community": "Güssing",
    "community_code": "10405",
    "latitude": "47.0462",
    "longitude": "16.3323"
  },
  {
    "country_code": "AT",
    "zipcode": "7540",
    "place": "Moschendorf",
    "state": "Burgenland",
    "state_code": "01",
    "province": "Politischer Bezirk Güssing",
    "province_code": "104",
    "community": "Moschendorf",
    "community_code": "10428",
    "latitude": "47.0584",
    "longitude": "16.4773"
  },
  {
    "country_code": "AT",
    "zipcode": "7540",
    "place": "Krottendorf",
    "state": "Burgenland",
    "state_code": "01",
    "province": "Politischer Bezirk Güssing",
    "province_code": "104",
    "community": "Güssing",
    "community_code": "10405",
    "latitude": "47.0595",
    "longitude": "16.3071"
  },
  {
    "country_code": "AT",
    "zipcode": "7540",
    "place": "Tschanigraben",
    "state": "Burgenland",
    "state_code": "01",
    "province": "Politischer Bezirk Güssing",
    "province_code": "104",
    "community": "Tschanigraben",
    "community_code": "10423",
    "latitude": "47.0677",
    "longitude": "16.2921"
  },
  {
    "country_code": "AT",
    "zipcode": "7540",
    "place": "Inzenhof",
    "state": "Burgenland",
    "state_code": "01",
    "province": "Politischer Bezirk Güssing",
    "province_code": "104",
    "community": "Inzenhof",
    "community_code": "10421",
    "latitude": "47.0167",
    "longitude": "16.3167"
  },
  {
    "country_code": "AT",
    "zipcode": "7540",
    "place": "Sulz im Burgenland",
    "state": "Burgenland",
    "state_code": "01",
    "province": "Politischer Bezirk Güssing",
    "province_code": "104",
    "community": "Gerersdorf-Sulz",
    "community_code": "10404",
    "latitude": "47.0748",
    "longitude": "16.2696"
  },
  {
    "country_code": "AT",
    "zipcode": "7540",
    "place": "Rehgraben",
    "state": "Burgenland",
    "state_code": "01",
    "province": "Politischer Bezirk Güssing",
    "province_code": "104",
    "community": "Gerersdorf-Sulz",
    "community_code": "10404",
    "latitude": "47.0833",
    "longitude": "16.2333"
  },
  {
    "country_code": "AT",
    "zipcode": "7540",
    "place": "Neustift bei Güssing",
    "state": "Burgenland",
    "state_code": "01",
    "province": "Politischer Bezirk Güssing",
    "province_code": "104",
    "community": "Neustift bei Güssing",
    "community_code": "10410",
    "latitude": "47.0167",
    "longitude": "16.2667"
  },
  {
    "country_code": "AT",
    "zipcode": "7540",
    "place": "Urbersdorf",
    "state": "Burgenland",
    "state_code": "01",
    "province": "Politischer Bezirk Güssing",
    "province_code": "104",
    "community": "Güssing",
    "community_code": "10405",
    "latitude": "47.0576",
    "longitude": "16.3729"
  },
  {
    "country_code": "AT",
    "zipcode": "7540",
    "place": "Güssing",
    "state": "Burgenland",
    "state_code": "01",
    "province": "Politischer Bezirk Güssing",
    "province_code": "104",
    "community": "Güssing",
    "community_code": "10405",
    "latitude": "47.0594",
    "longitude": "16.3243"
  },
  {
    "country_code": "AT",
    "zipcode": "7540",
    "place": "Glasing",
    "state": "Burgenland",
    "state_code": "01",
    "province": "Politischer Bezirk Güssing",
    "province_code": "104",
    "community": "Güssing",
    "community_code": "10405",
    "latitude": "47.0433",
    "longitude": "16.3575"
  },
  {
    "country_code": "AT",
    "zipcode": "7540",
    "place": "Großmürbisch",
    "state": "Burgenland",
    "state_code": "01",
    "province": "Politischer Bezirk Güssing",
    "province_code": "104",
    "community": "Großmürbisch",
    "community_code": "10420",
    "latitude": "47.0164",
    "longitude": "16.362"
  },
  {
    "country_code": "AT",
    "zipcode": "7540",
    "place": "Kleinmürbisch",
    "state": "Burgenland",
    "state_code": "01",
    "province": "Politischer Bezirk Güssing",
    "province_code": "104",
    "community": "Kleinmürbisch",
    "community_code": "10422",
    "latitude": "47.033",
    "longitude": "16.3245"
  },
  {
    "country_code": "AT",
    "zipcode": "7542",
    "place": "Gerersdorf bei Güssing",
    "state": "Burgenland",
    "state_code": "01",
    "province": "Politischer Bezirk Güssing",
    "province_code": "104",
    "community": "Gerersdorf-Sulz",
    "community_code": "10404",
    "latitude": "47.0667",
    "longitude": "16.25"
  },
  {
    "country_code": "AT",
    "zipcode": "7542",
    "place": "Sulz im Burgenland",
    "state": "Burgenland",
    "state_code": "01",
    "province": "Politischer Bezirk Güssing",
    "province_code": "104",
    "community": "Gerersdorf-Sulz",
    "community_code": "10404",
    "latitude": "47.0748",
    "longitude": "16.2696"
  },
  {
    "country_code": "AT",
    "zipcode": "7542",
    "place": "Steingraben",
    "state": "Burgenland",
    "state_code": "01",
    "province": "Politischer Bezirk Güssing",
    "province_code": "104",
    "community": "Güssing",
    "community_code": "10405",
    "latitude": "47.0643",
    "longitude": "16.2743"
  },
  {
    "country_code": "AT",
    "zipcode": "7543",
    "place": "Neusiedl",
    "state": "Burgenland",
    "state_code": "01",
    "province": "Politischer Bezirk Güssing",
    "province_code": "104",
    "community": "Kukmirn",
    "community_code": "10408",
    "latitude": "47.1",
    "longitude": "16.1833"
  },
  {
    "country_code": "AT",
    "zipcode": "7543",
    "place": "Eisenhüttl",
    "state": "Burgenland",
    "state_code": "01",
    "province": "Politischer Bezirk Güssing",
    "province_code": "104",
    "community": "Kukmirn",
    "community_code": "10408",
    "latitude": "47.1",
    "longitude": "16.2"
  },
  {
    "country_code": "AT",
    "zipcode": "7543",
    "place": "Limbach",
    "state": "Burgenland",
    "state_code": "01",
    "province": "Politischer Bezirk Güssing",
    "province_code": "104",
    "community": "Kukmirn",
    "community_code": "10408",
    "latitude": "47.0667",
    "longitude": "16.1667"
  },
  {
    "country_code": "AT",
    "zipcode": "7543",
    "place": "Kukmirn",
    "state": "Burgenland",
    "state_code": "01",
    "province": "Politischer Bezirk Güssing",
    "province_code": "104",
    "community": "Kukmirn",
    "community_code": "10408",
    "latitude": "47.0754",
    "longitude": "16.2103"
  },
  {
    "country_code": "AT",
    "zipcode": "7544",
    "place": "Deutsch Tschantschendorf",
    "state": "Burgenland",
    "state_code": "01",
    "province": "Politischer Bezirk Güssing",
    "province_code": "104",
    "community": "Tobaj",
    "community_code": "10417",
    "latitude": "47.1",
    "longitude": "16.2833"
  },
  {
    "country_code": "AT",
    "zipcode": "7544",
    "place": "Tobaj",
    "state": "Burgenland",
    "state_code": "01",
    "province": "Politischer Bezirk Güssing",
    "province_code": "104",
    "community": "Tobaj",
    "community_code": "10417",
    "latitude": "47.0833",
    "longitude": "16.3"
  },
  {
    "country_code": "AT",
    "zipcode": "7544",
    "place": "Hasendorf im Burgenland",
    "state": "Burgenland",
    "state_code": "01",
    "province": "Politischer Bezirk Güssing",
    "province_code": "104",
    "community": "Tobaj",
    "community_code": "10417",
    "latitude": "47.0833",
    "longitude": "16.3"
  },
  {
    "country_code": "AT",
    "zipcode": "7544",
    "place": "Kroatisch Tschantschendorf",
    "state": "Burgenland",
    "state_code": "01",
    "province": "Politischer Bezirk Güssing",
    "province_code": "104",
    "community": "Tobaj",
    "community_code": "10417",
    "latitude": "47.0974",
    "longitude": "16.2864"
  },
  {
    "country_code": "AT",
    "zipcode": "7544",
    "place": "Tudersdorf",
    "state": "Burgenland",
    "state_code": "01",
    "province": "Politischer Bezirk Güssing",
    "province_code": "104",
    "community": "Tobaj",
    "community_code": "10417",
    "latitude": "47.1",
    "longitude": "16.2833"
  },
  {
    "country_code": "AT",
    "zipcode": "7544",
    "place": "Punitz",
    "state": "Burgenland",
    "state_code": "01",
    "province": "Politischer Bezirk Güssing",
    "province_code": "104",
    "community": "Tobaj",
    "community_code": "10417",
    "latitude": "47.1167",
    "longitude": "16.35"
  },
  {
    "country_code": "AT",
    "zipcode": "7551",
    "place": "Heugraben",
    "state": "Burgenland",
    "state_code": "01",
    "province": "Politischer Bezirk Güssing",
    "province_code": "104",
    "community": "Heugraben",
    "community_code": "10424",
    "latitude": "47.1167",
    "longitude": "16.1833"
  },
  {
    "country_code": "AT",
    "zipcode": "7551",
    "place": "Bocksdorf",
    "state": "Burgenland",
    "state_code": "01",
    "province": "Politischer Bezirk Güssing",
    "province_code": "104",
    "community": "Bocksdorf",
    "community_code": "10401",
    "latitude": "47.1333",
    "longitude": "16.1667"
  },
  {
    "country_code": "AT",
    "zipcode": "7551",
    "place": "Stegersbach",
    "state": "Burgenland",
    "state_code": "01",
    "province": "Politischer Bezirk Güssing",
    "province_code": "104",
    "community": "Stegersbach",
    "community_code": "10414",
    "latitude": "47.1667",
    "longitude": "16.1667"
  },
  {
    "country_code": "AT",
    "zipcode": "7551",
    "place": "Rohr im Burgenland",
    "state": "Burgenland",
    "state_code": "01",
    "province": "Politischer Bezirk Güssing",
    "province_code": "104",
    "community": "Rohr im Burgenland",
    "community_code": "10425",
    "latitude": "47.1167",
    "longitude": "16.1667"
  },
  {
    "country_code": "AT",
    "zipcode": "7552",
    "place": "Stinatz / Stinjaki",
    "state": "Burgenland",
    "state_code": "01",
    "province": "Politischer Bezirk Güssing",
    "province_code": "104",
    "community": "Stinatz",
    "community_code": "10415",
    "latitude": "47.2",
    "longitude": "16.1167"
  },
  {
    "country_code": "AT",
    "zipcode": "8291",
    "place": "Burgauberg",
    "state": "Burgenland",
    "state_code": "01",
    "province": "Politischer Bezirk Güssing",
    "province_code": "104",
    "community": "Burgauberg-Neudauberg",
    "community_code": "10402",
    "latitude": "47.1477",
    "longitude": "16.1235"
  },
  {
    "country_code": "AT",
    "zipcode": "8292",
    "place": "Neudauberg",
    "state": "Burgenland",
    "state_code": "01",
    "province": "Politischer Bezirk Güssing",
    "province_code": "104",
    "community": "Burgauberg-Neudauberg",
    "community_code": "10402",
    "latitude": "47.1717",
    "longitude": "16.1195"
  },
  {
    "country_code": "AT",
    "zipcode": "8292",
    "place": "Hackerberg",
    "state": "Burgenland",
    "state_code": "01",
    "province": "Politischer Bezirk Güssing",
    "province_code": "104",
    "community": "Hackerberg",
    "community_code": "10418",
    "latitude": "47.2",
    "longitude": "16.1167"
  },
  {
    "country_code": "AT",
    "zipcode": "8293",
    "place": "Wörterberg",
    "state": "Burgenland",
    "state_code": "01",
    "province": "Politischer Bezirk Güssing",
    "province_code": "104",
    "community": "Wörterberg",
    "community_code": "10419",
    "latitude": "47.2167",
    "longitude": "16.1"
  },
  {
    "country_code": "AT",
    "zipcode": "7561",
    "place": "Heiligenkreuz im Lafnitztal",
    "state": "Burgenland",
    "state_code": "01",
    "province": "Politischer Bezirk Jennersdorf",
    "province_code": "105",
    "community": "Heiligenkreuz im Lafnitztal",
    "community_code": "10503",
    "latitude": "46.9892",
    "longitude": "16.2608"
  },
  {
    "country_code": "AT",
    "zipcode": "7561",
    "place": "Poppendorf im Burgenland",
    "state": "Burgenland",
    "state_code": "01",
    "province": "Politischer Bezirk Jennersdorf",
    "province_code": "105",
    "community": "Heiligenkreuz im Lafnitztal",
    "community_code": "10503",
    "latitude": "46.9969",
    "longitude": "16.225"
  },
  {
    "country_code": "AT",
    "zipcode": "7562",
    "place": "Eltendorf",
    "state": "Burgenland",
    "state_code": "01",
    "province": "Politischer Bezirk Jennersdorf",
    "province_code": "105",
    "community": "Eltendorf",
    "community_code": "10502",
    "latitude": "47",
    "longitude": "16.2"
  },
  {
    "country_code": "AT",
    "zipcode": "7562",
    "place": "Zahling",
    "state": "Burgenland",
    "state_code": "01",
    "province": "Politischer Bezirk Jennersdorf",
    "province_code": "105",
    "community": "Eltendorf",
    "community_code": "10502",
    "latitude": "47.0333",
    "longitude": "16.2"
  },
  {
    "country_code": "AT",
    "zipcode": "7563",
    "place": "Königsdorf",
    "state": "Burgenland",
    "state_code": "01",
    "province": "Politischer Bezirk Jennersdorf",
    "province_code": "105",
    "community": "Königsdorf",
    "community_code": "10511",
    "latitude": "47",
    "longitude": "16.1667"
  },
  {
    "country_code": "AT",
    "zipcode": "7564",
    "place": "Rudersdorf",
    "state": "Burgenland",
    "state_code": "01",
    "province": "Politischer Bezirk Jennersdorf",
    "province_code": "105",
    "community": "Rudersdorf",
    "community_code": "10508",
    "latitude": "47.05",
    "longitude": "16.1167"
  },
  {
    "country_code": "AT",
    "zipcode": "7564",
    "place": "Dobersdorf",
    "state": "Burgenland",
    "state_code": "01",
    "province": "Politischer Bezirk Jennersdorf",
    "province_code": "105",
    "community": "Rudersdorf",
    "community_code": "10508",
    "latitude": "47.0167",
    "longitude": "16.1333"
  },
  {
    "country_code": "AT",
    "zipcode": "7571",
    "place": "Rudersdorf",
    "state": "Burgenland",
    "state_code": "01",
    "province": "Politischer Bezirk Jennersdorf",
    "province_code": "105",
    "community": "Rudersdorf",
    "community_code": "10508",
    "latitude": "47.05",
    "longitude": "16.1167"
  },
  {
    "country_code": "AT",
    "zipcode": "7572",
    "place": "Deutsch Kaltenbrunn",
    "state": "Burgenland",
    "state_code": "01",
    "province": "Politischer Bezirk Jennersdorf",
    "province_code": "105",
    "community": "Deutsch Kaltenbrunn",
    "community_code": "10501",
    "latitude": "47.0879",
    "longitude": "16.1079"
  },
  {
    "country_code": "AT",
    "zipcode": "7572",
    "place": "Rohrbrunn",
    "state": "Burgenland",
    "state_code": "01",
    "province": "Politischer Bezirk Jennersdorf",
    "province_code": "105",
    "community": "Deutsch Kaltenbrunn",
    "community_code": "10501",
    "latitude": "47.1244",
    "longitude": "16.1151"
  },
  {
    "country_code": "AT",
    "zipcode": "8282",
    "place": "Henndorf im Burgenland",
    "state": "Burgenland",
    "state_code": "01",
    "province": "Politischer Bezirk Jennersdorf",
    "province_code": "105",
    "community": "Jennersdorf",
    "community_code": "10504",
    "latitude": "46.982",
    "longitude": "16.1459"
  },
  {
    "country_code": "AT",
    "zipcode": "8350",
    "place": "Welten",
    "state": "Burgenland",
    "state_code": "01",
    "province": "Politischer Bezirk Jennersdorf",
    "province_code": "105",
    "community": "Sankt Martin an der Raab",
    "community_code": "10509",
    "latitude": "46.9292",
    "longitude": "16.0825"
  },
  {
    "country_code": "AT",
    "zipcode": "8380",
    "place": "Jennersdorf",
    "state": "Burgenland",
    "state_code": "01",
    "province": "Politischer Bezirk Jennersdorf",
    "province_code": "105",
    "community": "Jennersdorf",
    "community_code": "10504",
    "latitude": "46.9385",
    "longitude": "16.1416"
  },
  {
    "country_code": "AT",
    "zipcode": "8380",
    "place": "Grieselstein",
    "state": "Burgenland",
    "state_code": "01",
    "province": "Politischer Bezirk Jennersdorf",
    "province_code": "105",
    "community": "Jennersdorf",
    "community_code": "10504",
    "latitude": "46.9525",
    "longitude": "16.12"
  },
  {
    "country_code": "AT",
    "zipcode": "8380",
    "place": "Henndorf im Burgenland",
    "state": "Burgenland",
    "state_code": "01",
    "province": "Politischer Bezirk Jennersdorf",
    "province_code": "105",
    "community": "Jennersdorf",
    "community_code": "10504",
    "latitude": "46.982",
    "longitude": "16.1459"
  },
  {
    "country_code": "AT",
    "zipcode": "8380",
    "place": "Neumarkt an der Raab",
    "state": "Burgenland",
    "state_code": "01",
    "province": "Politischer Bezirk Jennersdorf",
    "province_code": "105",
    "community": "Sankt Martin an der Raab",
    "community_code": "10509",
    "latitude": "46.9269",
    "longitude": "16.1667"
  },
  {
    "country_code": "AT",
    "zipcode": "8380",
    "place": "Rax",
    "state": "Burgenland",
    "state_code": "01",
    "province": "Politischer Bezirk Jennersdorf",
    "province_code": "105",
    "community": "Jennersdorf",
    "community_code": "10504",
    "latitude": "46.9333",
    "longitude": "16.1667"
  },
  {
    "country_code": "AT",
    "zipcode": "8382",
    "place": "Maria Bild",
    "state": "Burgenland",
    "state_code": "01",
    "province": "Politischer Bezirk Jennersdorf",
    "province_code": "105",
    "community": "Weichselbaum",
    "community_code": "10510",
    "latitude": "46.9589",
    "longitude": "16.1897"
  },
  {
    "country_code": "AT",
    "zipcode": "8382",
    "place": "Mogersdorf",
    "state": "Burgenland",
    "state_code": "01",
    "province": "Politischer Bezirk Jennersdorf",
    "province_code": "105",
    "community": "Mogersdorf",
    "community_code": "10506",
    "latitude": "46.9492",
    "longitude": "16.2322"
  },
  {
    "country_code": "AT",
    "zipcode": "8382",
    "place": "Weichselbaum",
    "state": "Burgenland",
    "state_code": "01",
    "province": "Politischer Bezirk Jennersdorf",
    "province_code": "105",
    "community": "Weichselbaum",
    "community_code": "10510",
    "latitude": "46.9425",
    "longitude": "16.1875"
  },
  {
    "country_code": "AT",
    "zipcode": "8382",
    "place": "Deutsch Minihof",
    "state": "Burgenland",
    "state_code": "01",
    "province": "Politischer Bezirk Jennersdorf",
    "province_code": "105",
    "community": "Mogersdorf",
    "community_code": "10506",
    "latitude": "46.9708",
    "longitude": "16.2426"
  },
  {
    "country_code": "AT",
    "zipcode": "8382",
    "place": "Rosendorf",
    "state": "Burgenland",
    "state_code": "01",
    "province": "Politischer Bezirk Jennersdorf",
    "province_code": "105",
    "community": "Weichselbaum",
    "community_code": "10510",
    "latitude": "46.9797",
    "longitude": "16.2103"
  },
  {
    "country_code": "AT",
    "zipcode": "8382",
    "place": "Wallendorf",
    "state": "Burgenland",
    "state_code": "01",
    "province": "Politischer Bezirk Jennersdorf",
    "province_code": "105",
    "community": "Mogersdorf",
    "community_code": "10506",
    "latitude": "46.9719",
    "longitude": "16.2333"
  },
  {
    "country_code": "AT",
    "zipcode": "8382",
    "place": "Krobotek",
    "state": "Burgenland",
    "state_code": "01",
    "province": "Politischer Bezirk Jennersdorf",
    "province_code": "105",
    "community": "Weichselbaum",
    "community_code": "10510",
    "latitude": "46.9715",
    "longitude": "16.1921"
  },
  {
    "country_code": "AT",
    "zipcode": "8383",
    "place": "Gritsch",
    "state": "Burgenland",
    "state_code": "01",
    "province": "Politischer Bezirk Jennersdorf",
    "province_code": "105",
    "community": "Sankt Martin an der Raab",
    "community_code": "10509",
    "latitude": "46.9244",
    "longitude": "16.1053"
  },
  {
    "country_code": "AT",
    "zipcode": "8383",
    "place": "Eisenberg an der Raab",
    "state": "Burgenland",
    "state_code": "01",
    "province": "Politischer Bezirk Jennersdorf",
    "province_code": "105",
    "community": "Sankt Martin an der Raab",
    "community_code": "10509",
    "latitude": "46.9",
    "longitude": "16.1333"
  },
  {
    "country_code": "AT",
    "zipcode": "8383",
    "place": "Sankt Martin an der Raab",
    "state": "Burgenland",
    "state_code": "01",
    "province": "Politischer Bezirk Jennersdorf",
    "province_code": "105",
    "community": "Sankt Martin an der Raab",
    "community_code": "10509",
    "latitude": "46.9225",
    "longitude": "16.1361"
  },
  {
    "country_code": "AT",
    "zipcode": "8383",
    "place": "Oberdrosen",
    "state": "Burgenland",
    "state_code": "01",
    "province": "Politischer Bezirk Jennersdorf",
    "province_code": "105",
    "community": "Sankt Martin an der Raab",
    "community_code": "10509",
    "latitude": "46.889",
    "longitude": "16.1203"
  },
  {
    "country_code": "AT",
    "zipcode": "8383",
    "place": "Welten",
    "state": "Burgenland",
    "state_code": "01",
    "province": "Politischer Bezirk Jennersdorf",
    "province_code": "105",
    "community": "Sankt Martin an der Raab",
    "community_code": "10509",
    "latitude": "46.9292",
    "longitude": "16.0825"
  },
  {
    "country_code": "AT",
    "zipcode": "8383",
    "place": "Doiber",
    "state": "Burgenland",
    "state_code": "01",
    "province": "Politischer Bezirk Jennersdorf",
    "province_code": "105",
    "community": "Sankt Martin an der Raab",
    "community_code": "10509",
    "latitude": "46.9222",
    "longitude": "16.1153"
  },
  {
    "country_code": "AT",
    "zipcode": "8384",
    "place": "Bonisdorf",
    "state": "Burgenland",
    "state_code": "01",
    "province": "Politischer Bezirk Jennersdorf",
    "province_code": "105",
    "community": "Neuhaus am Klausenbach",
    "community_code": "10507",
    "latitude": "46.8444",
    "longitude": "16.0497"
  },
  {
    "country_code": "AT",
    "zipcode": "8384",
    "place": "Minihof-Liebau",
    "state": "Burgenland",
    "state_code": "01",
    "province": "Politischer Bezirk Jennersdorf",
    "province_code": "105",
    "community": "Minihof-Liebau",
    "community_code": "10505",
    "latitude": "46.9173",
    "longitude": "16.1252"
  },
  {
    "country_code": "AT",
    "zipcode": "8384",
    "place": "Windisch-Minihof",
    "state": "Burgenland",
    "state_code": "01",
    "province": "Politischer Bezirk Jennersdorf",
    "province_code": "105",
    "community": "Minihof-Liebau",
    "community_code": "10505",
    "latitude": "46.8908",
    "longitude": "16.0954"
  },
  {
    "country_code": "AT",
    "zipcode": "8384",
    "place": "Oberdrosen",
    "state": "Burgenland",
    "state_code": "01",
    "province": "Politischer Bezirk Jennersdorf",
    "province_code": "105",
    "community": "Sankt Martin an der Raab",
    "community_code": "10509",
    "latitude": "46.889",
    "longitude": "16.1203"
  },
  {
    "country_code": "AT",
    "zipcode": "8384",
    "place": "Tauka",
    "state": "Burgenland",
    "state_code": "01",
    "province": "Politischer Bezirk Jennersdorf",
    "province_code": "105",
    "community": "Minihof-Liebau",
    "community_code": "10505",
    "latitude": "46.8647",
    "longitude": "16.0789"
  },
  {
    "country_code": "AT",
    "zipcode": "8385",
    "place": "Mühlgraben",
    "state": "Burgenland",
    "state_code": "01",
    "province": "Politischer Bezirk Jennersdorf",
    "province_code": "105",
    "community": "Mühlgraben",
    "community_code": "10512",
    "latitude": "46.8897",
    "longitude": "16.0408"
  },
  {
    "country_code": "AT",
    "zipcode": "8385",
    "place": "Krottendorf bei Neuhaus am Klausenbach",
    "state": "Burgenland",
    "state_code": "01",
    "province": "Politischer Bezirk Jennersdorf",
    "province_code": "105",
    "community": "Neuhaus am Klausenbach",
    "community_code": "10507",
    "latitude": "46.85",
    "longitude": "16.0167"
  },
  {
    "country_code": "AT",
    "zipcode": "8385",
    "place": "Kalch",
    "state": "Burgenland",
    "state_code": "01",
    "province": "Politischer Bezirk Jennersdorf",
    "province_code": "105",
    "community": "Neuhaus am Klausenbach",
    "community_code": "10507",
    "latitude": "46.85",
    "longitude": "16.0167"
  },
  {
    "country_code": "AT",
    "zipcode": "8385",
    "place": "Welten",
    "state": "Burgenland",
    "state_code": "01",
    "province": "Politischer Bezirk Jennersdorf",
    "province_code": "105",
    "community": "Sankt Martin an der Raab",
    "community_code": "10509",
    "latitude": "46.9292",
    "longitude": "16.0825"
  },
  {
    "country_code": "AT",
    "zipcode": "8385",
    "place": "Neuhaus am Klausenbach",
    "state": "Burgenland",
    "state_code": "01",
    "province": "Politischer Bezirk Jennersdorf",
    "province_code": "105",
    "community": "Neuhaus am Klausenbach",
    "community_code": "10507",
    "latitude": "46.8667",
    "longitude": "16.0333"
  },
  {
    "country_code": "AT",
    "zipcode": "8385",
    "place": "Bonisdorf",
    "state": "Burgenland",
    "state_code": "01",
    "province": "Politischer Bezirk Jennersdorf",
    "province_code": "105",
    "community": "Neuhaus am Klausenbach",
    "community_code": "10507",
    "latitude": "46.8444",
    "longitude": "16.0497"
  },
  {
    "country_code": "AT",
    "zipcode": "7020",
    "place": "Loipersbach im Burgenland",
    "state": "Burgenland",
    "state_code": "01",
    "province": "Politischer Bezirk Mattersburg",
    "province_code": "106",
    "community": "Loipersbach im Burgenland",
    "community_code": "10604",
    "latitude": "47.6966",
    "longitude": "16.4792"
  },
  {
    "country_code": "AT",
    "zipcode": "7021",
    "place": "Draßburg / Rasporak",
    "state": "Burgenland",
    "state_code": "01",
    "province": "Politischer Bezirk Mattersburg",
    "province_code": "106",
    "community": "Draßburg",
    "community_code": "10601",
    "latitude": "47.7465",
    "longitude": "16.4868"
  },
  {
    "country_code": "AT",
    "zipcode": "7021",
    "place": "Baumgarten / Pajngrt",
    "state": "Burgenland",
    "state_code": "01",
    "province": "Politischer Bezirk Mattersburg",
    "province_code": "106",
    "community": "Baumgarten",
    "community_code": "10617",
    "latitude": "47.7389",
    "longitude": "16.5006"
  },
  {
    "country_code": "AT",
    "zipcode": "7022",
    "place": "Schattendorf",
    "state": "Burgenland",
    "state_code": "01",
    "province": "Politischer Bezirk Mattersburg",
    "province_code": "106",
    "community": "Schattendorf",
    "community_code": "10612",
    "latitude": "47.7097",
    "longitude": "16.5098"
  },
  {
    "country_code": "AT",
    "zipcode": "7023",
    "place": "Stöttera",
    "state": "Burgenland",
    "state_code": "01",
    "province": "Politischer Bezirk Mattersburg",
    "province_code": "106",
    "community": "Zemendorf-Stöttera",
    "community_code": "10618",
    "latitude": "47.7679",
    "longitude": "16.4611"
  },
  {
    "country_code": "AT",
    "zipcode": "7023",
    "place": "Zemendorf",
    "state": "Burgenland",
    "state_code": "01",
    "province": "Politischer Bezirk Mattersburg",
    "province_code": "106",
    "community": "Zemendorf-Stöttera",
    "community_code": "10618",
    "latitude": "47.7628",
    "longitude": "16.4511"
  },
  {
    "country_code": "AT",
    "zipcode": "7023",
    "place": "Pöttelsdorf",
    "state": "Burgenland",
    "state_code": "01",
    "province": "Politischer Bezirk Mattersburg",
    "province_code": "106",
    "community": "Pöttelsdorf",
    "community_code": "10608",
    "latitude": "47.7537",
    "longitude": "16.4386"
  },
  {
    "country_code": "AT",
    "zipcode": "7024",
    "place": "Hirm",
    "state": "Burgenland",
    "state_code": "01",
    "province": "Politischer Bezirk Mattersburg",
    "province_code": "106",
    "community": "Hirm",
    "community_code": "10603",
    "latitude": "47.7865",
    "longitude": "16.4546"
  },
  {
    "country_code": "AT",
    "zipcode": "7031",
    "place": "Krensdorf",
    "state": "Burgenland",
    "state_code": "01",
    "province": "Politischer Bezirk Mattersburg",
    "province_code": "106",
    "community": "Krensdorf",
    "community_code": "10619",
    "latitude": "47.7855",
    "longitude": "16.4149"
  },
  {
    "country_code": "AT",
    "zipcode": "7032",
    "place": "Sigleß",
    "state": "Burgenland",
    "state_code": "01",
    "province": "Politischer Bezirk Mattersburg",
    "province_code": "106",
    "community": "Sigleß",
    "community_code": "10614",
    "latitude": "47.7753",
    "longitude": "16.395"
  },
  {
    "country_code": "AT",
    "zipcode": "7033",
    "place": "Pöttsching",
    "state": "Burgenland",
    "state_code": "01",
    "province": "Politischer Bezirk Mattersburg",
    "province_code": "106",
    "community": "Pöttsching",
    "community_code": "10609",
    "latitude": "47.8045",
    "longitude": "16.3711"
  },
  {
    "country_code": "AT",
    "zipcode": "7042",
    "place": "Antau / Otava",
    "state": "Burgenland",
    "state_code": "01",
    "province": "Politischer Bezirk Mattersburg",
    "province_code": "106",
    "community": "Antau",
    "community_code": "10616",
    "latitude": "47.7738",
    "longitude": "16.4798"
  },
  {
    "country_code": "AT",
    "zipcode": "7201",
    "place": "Neudörfl",
    "state": "Burgenland",
    "state_code": "01",
    "province": "Politischer Bezirk Mattersburg",
    "province_code": "106",
    "community": "Neudörfl",
    "community_code": "10607",
    "latitude": "47.7966",
    "longitude": "16.2977"
  },
  {
    "country_code": "AT",
    "zipcode": "7202",
    "place": "Wiesen",
    "state": "Burgenland",
    "state_code": "01",
    "province": "Politischer Bezirk Mattersburg",
    "province_code": "106",
    "community": "Wiesen",
    "community_code": "10615",
    "latitude": "47.7378",
    "longitude": "16.338"
  },
  {
    "country_code": "AT",
    "zipcode": "7202",
    "place": "Pöttsching",
    "state": "Burgenland",
    "state_code": "01",
    "province": "Politischer Bezirk Mattersburg",
    "province_code": "106",
    "community": "Pöttsching",
    "community_code": "10609",
    "latitude": "47.8045",
    "longitude": "16.3711"
  },
  {
    "country_code": "AT",
    "zipcode": "7202",
    "place": "Bad Sauerbrunn",
    "state": "Burgenland",
    "state_code": "01",
    "province": "Politischer Bezirk Mattersburg",
    "province_code": "106",
    "community": "Bad Sauerbrunn",
    "community_code": "10611",
    "latitude": "47.7744",
    "longitude": "16.3284"
  },
  {
    "country_code": "AT",
    "zipcode": "7203",
    "place": "Wiesen",
    "state": "Burgenland",
    "state_code": "01",
    "province": "Politischer Bezirk Mattersburg",
    "province_code": "106",
    "community": "Wiesen",
    "community_code": "10615",
    "latitude": "47.7378",
    "longitude": "16.338"
  },
  {
    "country_code": "AT",
    "zipcode": "7210",
    "place": "Walbersdorf",
    "state": "Burgenland",
    "state_code": "01",
    "province": "Politischer Bezirk Mattersburg",
    "province_code": "106",
    "community": "Mattersburg",
    "community_code": "10606",
    "latitude": "47.7333",
    "longitude": "16.4"
  },
  {
    "country_code": "AT",
    "zipcode": "7210",
    "place": "Mattersburg",
    "state": "Burgenland",
    "state_code": "01",
    "province": "Politischer Bezirk Mattersburg",
    "province_code": "106",
    "community": "Mattersburg",
    "community_code": "10606",
    "latitude": "47.7333",
    "longitude": "16.4"
  },
  {
    "country_code": "AT",
    "zipcode": "7212",
    "place": "Forchtenstein",
    "state": "Burgenland",
    "state_code": "01",
    "province": "Politischer Bezirk Mattersburg",
    "province_code": "106",
    "community": "Forchtenstein",
    "community_code": "10602",
    "latitude": "47.7116",
    "longitude": "16.3453"
  },
  {
    "country_code": "AT",
    "zipcode": "7221",
    "place": "Marz",
    "state": "Burgenland",
    "state_code": "01",
    "province": "Politischer Bezirk Mattersburg",
    "province_code": "106",
    "community": "Marz",
    "community_code": "10605",
    "latitude": "47.7167",
    "longitude": "16.4167"
  },
  {
    "country_code": "AT",
    "zipcode": "7222",
    "place": "Rohrbach bei Mattersburg",
    "state": "Burgenland",
    "state_code": "01",
    "province": "Politischer Bezirk Mattersburg",
    "province_code": "106",
    "community": "Rohrbach bei Mattersburg",
    "community_code": "10610",
    "latitude": "47.7052",
    "longitude": "16.4301"
  },
  {
    "country_code": "AT",
    "zipcode": "7223",
    "place": "Sieggraben",
    "state": "Burgenland",
    "state_code": "01",
    "province": "Politischer Bezirk Mattersburg",
    "province_code": "106",
    "community": "Sieggraben",
    "community_code": "10613",
    "latitude": "47.6513",
    "longitude": "16.3799"
  },
  {
    "country_code": "AT",
    "zipcode": "2413",
    "place": "Edelstal",
    "state": "Burgenland",
    "state_code": "01",
    "province": "Politischer Bezirk Neusiedl am See",
    "province_code": "107",
    "community": "Edelstal",
    "community_code": "10727",
    "latitude": "48.1",
    "longitude": "16.9833"
  },
  {
    "country_code": "AT",
    "zipcode": "2421",
    "place": "Kittsee",
    "state": "Burgenland",
    "state_code": "01",
    "province": "Politischer Bezirk Neusiedl am See",
    "province_code": "107",
    "community": "Kittsee",
    "community_code": "10711",
    "latitude": "48.0925",
    "longitude": "17.0639"
  },
  {
    "country_code": "AT",
    "zipcode": "2422",
    "place": "Pama / Bijelo Selo",
    "state": "Burgenland",
    "state_code": "01",
    "province": "Politischer Bezirk Neusiedl am See",
    "province_code": "107",
    "community": "Pama",
    "community_code": "10715",
    "latitude": "48.05",
    "longitude": "17.0333"
  },
  {
    "country_code": "AT",
    "zipcode": "2423",
    "place": "Deutsch Jahrndorf",
    "state": "Burgenland",
    "state_code": "01",
    "province": "Politischer Bezirk Neusiedl am See",
    "province_code": "107",
    "community": "Deutsch Jahrndorf",
    "community_code": "10704",
    "latitude": "48.0167",
    "longitude": "17.1"
  },
  {
    "country_code": "AT",
    "zipcode": "2424",
    "place": "Zurndorf",
    "state": "Burgenland",
    "state_code": "01",
    "province": "Politischer Bezirk Neusiedl am See",
    "province_code": "107",
    "community": "Zurndorf",
    "community_code": "10724",
    "latitude": "47.9831",
    "longitude": "17.0031"
  },
  {
    "country_code": "AT",
    "zipcode": "2425",
    "place": "Nickelsdorf",
    "state": "Burgenland",
    "state_code": "01",
    "province": "Politischer Bezirk Neusiedl am See",
    "province_code": "107",
    "community": "Nickelsdorf",
    "community_code": "10714",
    "latitude": "47.9406",
    "longitude": "17.0694"
  },
  {
    "country_code": "AT",
    "zipcode": "2460",
    "place": "Bruckneudorf",
    "state": "Burgenland",
    "state_code": "01",
    "province": "Politischer Bezirk Neusiedl am See",
    "province_code": "107",
    "community": "Bruckneudorf",
    "community_code": "10703",
    "latitude": "48.0167",
    "longitude": "16.7833"
  },
  {
    "country_code": "AT",
    "zipcode": "2462",
    "place": "Kaisersteinbruch",
    "state": "Burgenland",
    "state_code": "01",
    "province": "Politischer Bezirk Neusiedl am See",
    "province_code": "107",
    "community": "Bruckneudorf",
    "community_code": "10703",
    "latitude": "47.9881",
    "longitude": "16.7029"
  },
  {
    "country_code": "AT",
    "zipcode": "2462",
    "place": "Königshof",
    "state": "Burgenland",
    "state_code": "01",
    "province": "Politischer Bezirk Neusiedl am See",
    "province_code": "107",
    "community": "Bruckneudorf",
    "community_code": "10703",
    "latitude": "48.0339",
    "longitude": "16.7207"
  },
  {
    "country_code": "AT",
    "zipcode": "2471",
    "place": "Parndorf / Pandrof",
    "state": "Burgenland",
    "state_code": "01",
    "province": "Politischer Bezirk Neusiedl am See",
    "province_code": "107",
    "community": "Parndorf",
    "community_code": "10717",
    "latitude": "47.9996",
    "longitude": "16.8605"
  },
  {
    "country_code": "AT",
    "zipcode": "2473",
    "place": "Potzneusiedl",
    "state": "Burgenland",
    "state_code": "01",
    "province": "Politischer Bezirk Neusiedl am See",
    "province_code": "107",
    "community": "Potzneusiedl",
    "community_code": "10726",
    "latitude": "48.045",
    "longitude": "16.9477"
  },
  {
    "country_code": "AT",
    "zipcode": "2474",
    "place": "Gattendorf",
    "state": "Burgenland",
    "state_code": "01",
    "province": "Politischer Bezirk Neusiedl am See",
    "province_code": "107",
    "community": "Gattendorf",
    "community_code": "10706",
    "latitude": "48.0167",
    "longitude": "16.9833"
  },
  {
    "country_code": "AT",
    "zipcode": "2475",
    "place": "Neudorf / Novo Selo",
    "state": "Burgenland",
    "state_code": "01",
    "province": "Politischer Bezirk Neusiedl am See",
    "province_code": "107",
    "community": "Neudorf",
    "community_code": "10725",
    "latitude": "48.0167",
    "longitude": "16.9333"
  },
  {
    "country_code": "AT",
    "zipcode": "7092",
    "place": "Winden am See",
    "state": "Burgenland",
    "state_code": "01",
    "province": "Politischer Bezirk Neusiedl am See",
    "province_code": "107",
    "community": "Winden am See",
    "community_code": "10723",
    "latitude": "47.95",
    "longitude": "16.75"
  },
  {
    "country_code": "AT",
    "zipcode": "7093",
    "place": "Jois",
    "state": "Burgenland",
    "state_code": "01",
    "province": "Politischer Bezirk Neusiedl am See",
    "province_code": "107",
    "community": "Jois",
    "community_code": "10710",
    "latitude": "47.9617",
    "longitude": "16.796"
  },
  {
    "country_code": "AT",
    "zipcode": "7100",
    "place": "Weiden am See",
    "state": "Burgenland",
    "state_code": "01",
    "province": "Politischer Bezirk Neusiedl am See",
    "province_code": "107",
    "community": "Weiden am See",
    "community_code": "10722",
    "latitude": "47.9253",
    "longitude": "16.869"
  },
  {
    "country_code": "AT",
    "zipcode": "7100",
    "place": "Neusiedl am See",
    "state": "Burgenland",
    "state_code": "01",
    "province": "Politischer Bezirk Neusiedl am See",
    "province_code": "107",
    "community": "Neusiedl am See",
    "community_code": "10713",
    "latitude": "47.949",
    "longitude": "16.8417"
  },
  {
    "country_code": "AT",
    "zipcode": "7111",
    "place": "Parndorf / Pandrof",
    "state": "Burgenland",
    "state_code": "01",
    "province": "Politischer Bezirk Neusiedl am See",
    "province_code": "107",
    "community": "Parndorf",
    "community_code": "10717",
    "latitude": "47.9996",
    "longitude": "16.8605"
  },
  {
    "country_code": "AT",
    "zipcode": "7121",
    "place": "Weiden am See",
    "state": "Burgenland",
    "state_code": "01",
    "province": "Politischer Bezirk Neusiedl am See",
    "province_code": "107",
    "community": "Weiden am See",
    "community_code": "10722",
    "latitude": "47.9253",
    "longitude": "16.869"
  },
  {
    "country_code": "AT",
    "zipcode": "7122",
    "place": "Gols",
    "state": "Burgenland",
    "state_code": "01",
    "province": "Politischer Bezirk Neusiedl am See",
    "province_code": "107",
    "community": "Gols",
    "community_code": "10707",
    "latitude": "47.8969",
    "longitude": "16.9111"
  },
  {
    "country_code": "AT",
    "zipcode": "7123",
    "place": "Mönchhof",
    "state": "Burgenland",
    "state_code": "01",
    "province": "Politischer Bezirk Neusiedl am See",
    "province_code": "107",
    "community": "Mönchhof",
    "community_code": "10712",
    "latitude": "47.8802",
    "longitude": "16.9413"
  },
  {
    "country_code": "AT",
    "zipcode": "7131",
    "place": "Halbturn",
    "state": "Burgenland",
    "state_code": "01",
    "province": "Politischer Bezirk Neusiedl am See",
    "province_code": "107",
    "community": "Halbturn",
    "community_code": "10708",
    "latitude": "47.8702",
    "longitude": "16.9754"
  },
  {
    "country_code": "AT",
    "zipcode": "7132",
    "place": "Frauenkirchen",
    "state": "Burgenland",
    "state_code": "01",
    "province": "Politischer Bezirk Neusiedl am See",
    "province_code": "107",
    "community": "Frauenkirchen",
    "community_code": "10705",
    "latitude": "47.8368",
    "longitude": "16.9258"
  },
  {
    "country_code": "AT",
    "zipcode": "7132",
    "place": "Apetlon",
    "state": "Burgenland",
    "state_code": "01",
    "province": "Politischer Bezirk Neusiedl am See",
    "province_code": "107",
    "community": "Apetlon",
    "community_code": "10702",
    "latitude": "47.7439",
    "longitude": "16.8302"
  },
  {
    "country_code": "AT",
    "zipcode": "7141",
    "place": "Podersdorf am See",
    "state": "Burgenland",
    "state_code": "01",
    "province": "Politischer Bezirk Neusiedl am See",
    "province_code": "107",
    "community": "Podersdorf am See",
    "community_code": "10718",
    "latitude": "47.8541",
    "longitude": "16.8371"
  },
  {
    "country_code": "AT",
    "zipcode": "7142",
    "place": "Illmitz",
    "state": "Burgenland",
    "state_code": "01",
    "province": "Politischer Bezirk Neusiedl am See",
    "province_code": "107",
    "community": "Illmitz",
    "community_code": "10709",
    "latitude": "47.7615",
    "longitude": "16.8002"
  },
  {
    "country_code": "AT",
    "zipcode": "7143",
    "place": "Apetlon",
    "state": "Burgenland",
    "state_code": "01",
    "province": "Politischer Bezirk Neusiedl am See",
    "province_code": "107",
    "community": "Apetlon",
    "community_code": "10702",
    "latitude": "47.7439",
    "longitude": "16.8302"
  },
  {
    "country_code": "AT",
    "zipcode": "7151",
    "place": "Wallern im Burgenland",
    "state": "Burgenland",
    "state_code": "01",
    "province": "Politischer Bezirk Neusiedl am See",
    "province_code": "107",
    "community": "Wallern im Burgenland",
    "community_code": "10721",
    "latitude": "47.7285",
    "longitude": "16.9371"
  },
  {
    "country_code": "AT",
    "zipcode": "7152",
    "place": "Pamhagen",
    "state": "Burgenland",
    "state_code": "01",
    "province": "Politischer Bezirk Neusiedl am See",
    "province_code": "107",
    "community": "Pamhagen",
    "community_code": "10716",
    "latitude": "47.7009",
    "longitude": "16.9078"
  },
  {
    "country_code": "AT",
    "zipcode": "7152",
    "place": "Wallern im Burgenland",
    "state": "Burgenland",
    "state_code": "01",
    "province": "Politischer Bezirk Neusiedl am See",
    "province_code": "107",
    "community": "Wallern im Burgenland",
    "community_code": "10721",
    "latitude": "47.7285",
    "longitude": "16.9371"
  },
  {
    "country_code": "AT",
    "zipcode": "7161",
    "place": "Apetlon",
    "state": "Burgenland",
    "state_code": "01",
    "province": "Politischer Bezirk Neusiedl am See",
    "province_code": "107",
    "community": "Apetlon",
    "community_code": "10702",
    "latitude": "47.7439",
    "longitude": "16.8302"
  },
  {
    "country_code": "AT",
    "zipcode": "7161",
    "place": "Sankt Andrä am Zicksee",
    "state": "Burgenland",
    "state_code": "01",
    "province": "Politischer Bezirk Neusiedl am See",
    "province_code": "107",
    "community": "Sankt Andrä am Zicksee",
    "community_code": "10719",
    "latitude": "47.7841",
    "longitude": "16.9419"
  },
  {
    "country_code": "AT",
    "zipcode": "7162",
    "place": "Tadten",
    "state": "Burgenland",
    "state_code": "01",
    "province": "Politischer Bezirk Neusiedl am See",
    "province_code": "107",
    "community": "Tadten",
    "community_code": "10720",
    "latitude": "47.7667",
    "longitude": "16.9833"
  },
  {
    "country_code": "AT",
    "zipcode": "7163",
    "place": "Andau",
    "state": "Burgenland",
    "state_code": "01",
    "province": "Politischer Bezirk Neusiedl am See",
    "province_code": "107",
    "community": "Andau",
    "community_code": "10701",
    "latitude": "47.7744",
    "longitude": "17.0329"
  },
  {
    "country_code": "AT",
    "zipcode": "2812",
    "place": "Landsee",
    "state": "Burgenland",
    "state_code": "01",
    "province": "Politischer Bezirk Oberpullendorf",
    "province_code": "108",
    "community": "Markt Sankt Martin",
    "community_code": "10812",
    "latitude": "47.5583",
    "longitude": "16.3314"
  },
  {
    "country_code": "AT",
    "zipcode": "7301",
    "place": "Deutschkreutz",
    "state": "Burgenland",
    "state_code": "01",
    "province": "Politischer Bezirk Oberpullendorf",
    "province_code": "108",
    "community": "Deutschkreutz",
    "community_code": "10801",
    "latitude": "47.6",
    "longitude": "16.6333"
  },
  {
    "country_code": "AT",
    "zipcode": "7301",
    "place": "Girm",
    "state": "Burgenland",
    "state_code": "01",
    "province": "Politischer Bezirk Oberpullendorf",
    "province_code": "108",
    "community": "Deutschkreutz",
    "community_code": "10801",
    "latitude": "47.6",
    "longitude": "16.6067"
  },
  {
    "country_code": "AT",
    "zipcode": "7302",
    "place": "Kroatisch Minihof / Mjenovo",
    "state": "Burgenland",
    "state_code": "01",
    "province": "Politischer Bezirk Oberpullendorf",
    "province_code": "108",
    "community": "Nikitsch",
    "community_code": "10815",
    "latitude": "47.5255",
    "longitude": "16.6445"
  },
  {
    "country_code": "AT",
    "zipcode": "7302",
    "place": "Nikitsch / Filež",
    "state": "Burgenland",
    "state_code": "01",
    "province": "Politischer Bezirk Oberpullendorf",
    "province_code": "108",
    "community": "Nikitsch",
    "community_code": "10815",
    "latitude": "47.5362",
    "longitude": "16.6602"
  },
  {
    "country_code": "AT",
    "zipcode": "7304",
    "place": "Großwarasdorf / Veliki Borištof",
    "state": "Burgenland",
    "state_code": "01",
    "province": "Politischer Bezirk Oberpullendorf",
    "province_code": "108",
    "community": "Großwarasdorf",
    "community_code": "10804",
    "latitude": "47.5391",
    "longitude": "16.553"
  },
  {
    "country_code": "AT",
    "zipcode": "7304",
    "place": "Nebersdorf / Šuševo",
    "state": "Burgenland",
    "state_code": "01",
    "province": "Politischer Bezirk Oberpullendorf",
    "province_code": "108",
    "community": "Großwarasdorf",
    "community_code": "10804",
    "latitude": "47.5129",
    "longitude": "16.5705"
  },
  {
    "country_code": "AT",
    "zipcode": "7304",
    "place": "Mitterpullendorf",
    "state": "Burgenland",
    "state_code": "01",
    "province": "Politischer Bezirk Oberpullendorf",
    "province_code": "108",
    "community": "Oberpullendorf",
    "community_code": "10816",
    "latitude": "47.4933",
    "longitude": "16.5213"
  },
  {
    "country_code": "AT",
    "zipcode": "7304",
    "place": "Kleinwarasdorf / Mali Borištof",
    "state": "Burgenland",
    "state_code": "01",
    "province": "Politischer Bezirk Oberpullendorf",
    "province_code": "108",
    "community": "Großwarasdorf",
    "community_code": "10804",
    "latitude": "47.5374",
    "longitude": "16.589"
  },
  {
    "country_code": "AT",
    "zipcode": "7304",
    "place": "Langental / Longitolj",
    "state": "Burgenland",
    "state_code": "01",
    "province": "Politischer Bezirk Oberpullendorf",
    "province_code": "108",
    "community": "Großwarasdorf",
    "community_code": "10804",
    "latitude": "47.5036",
    "longitude": "16.5436"
  },
  {
    "country_code": "AT",
    "zipcode": "7311",
    "place": "Neckenmarkt",
    "state": "Burgenland",
    "state_code": "01",
    "province": "Politischer Bezirk Oberpullendorf",
    "province_code": "108",
    "community": "Neckenmarkt",
    "community_code": "10813",
    "latitude": "47.5996",
    "longitude": "16.5467"
  },
  {
    "country_code": "AT",
    "zipcode": "7311",
    "place": "Haschendorf",
    "state": "Burgenland",
    "state_code": "01",
    "province": "Politischer Bezirk Oberpullendorf",
    "province_code": "108",
    "community": "Neckenmarkt",
    "community_code": "10813",
    "latitude": "47.5979",
    "longitude": "16.5729"
  },
  {
    "country_code": "AT",
    "zipcode": "7312",
    "place": "Unterpetersdorf",
    "state": "Burgenland",
    "state_code": "01",
    "province": "Politischer Bezirk Oberpullendorf",
    "province_code": "108",
    "community": "Horitschon",
    "community_code": "10805",
    "latitude": "47.5905",
    "longitude": "16.582"
  },
  {
    "country_code": "AT",
    "zipcode": "7312",
    "place": "Horitschon",
    "state": "Burgenland",
    "state_code": "01",
    "province": "Politischer Bezirk Oberpullendorf",
    "province_code": "108",
    "community": "Horitschon",
    "community_code": "10805",
    "latitude": "47.5873",
    "longitude": "16.547"
  },
  {
    "country_code": "AT",
    "zipcode": "7321",
    "place": "Unterfrauenhaid",
    "state": "Burgenland",
    "state_code": "01",
    "province": "Politischer Bezirk Oberpullendorf",
    "province_code": "108",
    "community": "Unterfrauenhaid",
    "community_code": "10825",
    "latitude": "47.5712",
    "longitude": "16.4988"
  },
  {
    "country_code": "AT",
    "zipcode": "7321",
    "place": "Raiding",
    "state": "Burgenland",
    "state_code": "01",
    "province": "Politischer Bezirk Oberpullendorf",
    "province_code": "108",
    "community": "Raiding",
    "community_code": "10819",
    "latitude": "47.5658",
    "longitude": "16.5306"
  },
  {
    "country_code": "AT",
    "zipcode": "7321",
    "place": "Lackendorf",
    "state": "Burgenland",
    "state_code": "01",
    "province": "Politischer Bezirk Oberpullendorf",
    "province_code": "108",
    "community": "Lackendorf",
    "community_code": "10824",
    "latitude": "47.59",
    "longitude": "16.504"
  },
  {
    "country_code": "AT",
    "zipcode": "7322",
    "place": "Lackenbach",
    "state": "Burgenland",
    "state_code": "01",
    "province": "Politischer Bezirk Oberpullendorf",
    "province_code": "108",
    "community": "Lackenbach",
    "community_code": "10808",
    "latitude": "47.5904",
    "longitude": "16.4653"
  },
  {
    "country_code": "AT",
    "zipcode": "7323",
    "place": "Ritzing",
    "state": "Burgenland",
    "state_code": "01",
    "province": "Politischer Bezirk Oberpullendorf",
    "province_code": "108",
    "community": "Ritzing",
    "community_code": "10820",
    "latitude": "47.6132",
    "longitude": "16.4955"
  },
  {
    "country_code": "AT",
    "zipcode": "7331",
    "place": "Tschurndorf",
    "state": "Burgenland",
    "state_code": "01",
    "province": "Politischer Bezirk Oberpullendorf",
    "province_code": "108",
    "community": "Weppersdorf",
    "community_code": "10823",
    "latitude": "47.6077",
    "longitude": "16.4057"
  },
  {
    "country_code": "AT",
    "zipcode": "7331",
    "place": "Kalkgruben",
    "state": "Burgenland",
    "state_code": "01",
    "province": "Politischer Bezirk Oberpullendorf",
    "province_code": "108",
    "community": "Weppersdorf",
    "community_code": "10823",
    "latitude": "47.6211",
    "longitude": "16.3961"
  },
  {
    "country_code": "AT",
    "zipcode": "7331",
    "place": "Weppersdorf",
    "state": "Burgenland",
    "state_code": "01",
    "province": "Politischer Bezirk Oberpullendorf",
    "province_code": "108",
    "community": "Weppersdorf",
    "community_code": "10823",
    "latitude": "47.5795",
    "longitude": "16.4268"
  },
  {
    "country_code": "AT",
    "zipcode": "7332",
    "place": "Oberpetersdorf",
    "state": "Burgenland",
    "state_code": "01",
    "province": "Politischer Bezirk Oberpullendorf",
    "province_code": "108",
    "community": "Kobersdorf",
    "community_code": "10807",
    "latitude": "47.6155",
    "longitude": "16.3765"
  },
  {
    "country_code": "AT",
    "zipcode": "7332",
    "place": "Kobersdorf",
    "state": "Burgenland",
    "state_code": "01",
    "province": "Politischer Bezirk Oberpullendorf",
    "province_code": "108",
    "community": "Kobersdorf",
    "community_code": "10807",
    "latitude": "47.5957",
    "longitude": "16.3917"
  },
  {
    "country_code": "AT",
    "zipcode": "7341",
    "place": "Neudorf bei Landsee",
    "state": "Burgenland",
    "state_code": "01",
    "province": "Politischer Bezirk Oberpullendorf",
    "province_code": "108",
    "community": "Markt Sankt Martin",
    "community_code": "10812",
    "latitude": "47.5625",
    "longitude": "16.3798"
  },
  {
    "country_code": "AT",
    "zipcode": "7341",
    "place": "Markt Sankt Martin",
    "state": "Burgenland",
    "state_code": "01",
    "province": "Politischer Bezirk Oberpullendorf",
    "province_code": "108",
    "community": "Markt Sankt Martin",
    "community_code": "10812",
    "latitude": "47.562",
    "longitude": "16.4251"
  },
  {
    "country_code": "AT",
    "zipcode": "7341",
    "place": "Landsee",
    "state": "Burgenland",
    "state_code": "01",
    "province": "Politischer Bezirk Oberpullendorf",
    "province_code": "108",
    "community": "Markt Sankt Martin",
    "community_code": "10812",
    "latitude": "47.5583",
    "longitude": "16.3314"
  },
  {
    "country_code": "AT",
    "zipcode": "7341",
    "place": "Lindgraben",
    "state": "Burgenland",
    "state_code": "01",
    "province": "Politischer Bezirk Oberpullendorf",
    "province_code": "108",
    "community": "Kobersdorf",
    "community_code": "10807",
    "latitude": "47.5748",
    "longitude": "16.3989"
  },
  {
    "country_code": "AT",
    "zipcode": "7342",
    "place": "Kaisersdorf / Kalištrof",
    "state": "Burgenland",
    "state_code": "01",
    "province": "Politischer Bezirk Oberpullendorf",
    "province_code": "108",
    "community": "Kaisersdorf",
    "community_code": "10806",
    "latitude": "47.5374",
    "longitude": "16.392"
  },
  {
    "country_code": "AT",
    "zipcode": "7343",
    "place": "Neutal",
    "state": "Burgenland",
    "state_code": "01",
    "province": "Politischer Bezirk Oberpullendorf",
    "province_code": "108",
    "community": "Neutal",
    "community_code": "10814",
    "latitude": "47.5455",
    "longitude": "16.4462"
  },
  {
    "country_code": "AT",
    "zipcode": "7344",
    "place": "Stoob",
    "state": "Burgenland",
    "state_code": "01",
    "province": "Politischer Bezirk Oberpullendorf",
    "province_code": "108",
    "community": "Stoob",
    "community_code": "10822",
    "latitude": "47.5284",
    "longitude": "16.4776"
  },
  {
    "country_code": "AT",
    "zipcode": "7350",
    "place": "Mitterpullendorf",
    "state": "Burgenland",
    "state_code": "01",
    "province": "Politischer Bezirk Oberpullendorf",
    "province_code": "108",
    "community": "Oberpullendorf",
    "community_code": "10816",
    "latitude": "47.4933",
    "longitude": "16.5213"
  },
  {
    "country_code": "AT",
    "zipcode": "7350",
    "place": "Oberpullendorf / Felsöpulya",
    "state": "Burgenland",
    "state_code": "01",
    "province": "Politischer Bezirk Oberpullendorf",
    "province_code": "108",
    "community": "Oberpullendorf",
    "community_code": "10816",
    "latitude": "47.5108",
    "longitude": "16.4994"
  },
  {
    "country_code": "AT",
    "zipcode": "7350",
    "place": "Stoob",
    "state": "Burgenland",
    "state_code": "01",
    "province": "Politischer Bezirk Oberpullendorf",
    "province_code": "108",
    "community": "Stoob",
    "community_code": "10822",
    "latitude": "47.5284",
    "longitude": "16.4776"
  },
  {
    "country_code": "AT",
    "zipcode": "7361",
    "place": "Frankenau / Frakanava",
    "state": "Burgenland",
    "state_code": "01",
    "province": "Politischer Bezirk Oberpullendorf",
    "province_code": "108",
    "community": "Frankenau-Unterpullendorf",
    "community_code": "10803",
    "latitude": "47.45",
    "longitude": "16.6"
  },
  {
    "country_code": "AT",
    "zipcode": "7361",
    "place": "Kroatisch Geresdorf / Gerištof",
    "state": "Burgenland",
    "state_code": "01",
    "province": "Politischer Bezirk Oberpullendorf",
    "province_code": "108",
    "community": "Nikitsch",
    "community_code": "10815",
    "latitude": "47.4914",
    "longitude": "16.6102"
  },
  {
    "country_code": "AT",
    "zipcode": "7361",
    "place": "Strebersdorf",
    "state": "Burgenland",
    "state_code": "01",
    "province": "Politischer Bezirk Oberpullendorf",
    "province_code": "108",
    "community": "Lutzmannsburg",
    "community_code": "10810",
    "latitude": "47.4578",
    "longitude": "16.6191"
  },
  {
    "country_code": "AT",
    "zipcode": "7361",
    "place": "Lutzmannsburg",
    "state": "Burgenland",
    "state_code": "01",
    "province": "Politischer Bezirk Oberpullendorf",
    "province_code": "108",
    "community": "Lutzmannsburg",
    "community_code": "10810",
    "latitude": "47.4637",
    "longitude": "16.6366"
  },
  {
    "country_code": "AT",
    "zipcode": "7371",
    "place": "Oberrabnitz",
    "state": "Burgenland",
    "state_code": "01",
    "province": "Politischer Bezirk Oberpullendorf",
    "province_code": "108",
    "community": "Draßmarkt",
    "community_code": "10802",
    "latitude": "47.4929",
    "longitude": "16.3544"
  },
  {
    "country_code": "AT",
    "zipcode": "7371",
    "place": "Schwendgraben",
    "state": "Burgenland",
    "state_code": "01",
    "province": "Politischer Bezirk Oberpullendorf",
    "province_code": "108",
    "community": "Unterrabnitz-Schwendgraben",
    "community_code": "10826",
    "latitude": "47.4709",
    "longitude": "16.3557"
  },
  {
    "country_code": "AT",
    "zipcode": "7371",
    "place": "Unterrabnitz",
    "state": "Burgenland",
    "state_code": "01",
    "province": "Politischer Bezirk Oberpullendorf",
    "province_code": "108",
    "community": "Unterrabnitz-Schwendgraben",
    "community_code": "10826",
    "latitude": "47.4539",
    "longitude": "16.3768"
  },
  {
    "country_code": "AT",
    "zipcode": "7372",
    "place": "Draßmarkt",
    "state": "Burgenland",
    "state_code": "01",
    "province": "Politischer Bezirk Oberpullendorf",
    "province_code": "108",
    "community": "Draßmarkt",
    "community_code": "10802",
    "latitude": "47.5167",
    "longitude": "16.4"
  },
  {
    "country_code": "AT",
    "zipcode": "7372",
    "place": "Karl",
    "state": "Burgenland",
    "state_code": "01",
    "province": "Politischer Bezirk Oberpullendorf",
    "province_code": "108",
    "community": "Draßmarkt",
    "community_code": "10802",
    "latitude": "47.5089",
    "longitude": "16.3464"
  },
  {
    "country_code": "AT",
    "zipcode": "7373",
    "place": "Piringsdorf",
    "state": "Burgenland",
    "state_code": "01",
    "province": "Politischer Bezirk Oberpullendorf",
    "province_code": "108",
    "community": "Piringsdorf",
    "community_code": "10818",
    "latitude": "47.4483",
    "longitude": "16.4152"
  },
  {
    "country_code": "AT",
    "zipcode": "7374",
    "place": "Weingraben / Bajngrob",
    "state": "Burgenland",
    "state_code": "01",
    "province": "Politischer Bezirk Oberpullendorf",
    "province_code": "108",
    "community": "Weingraben",
    "community_code": "10827",
    "latitude": "47.5139",
    "longitude": "16.3637"
  },
  {
    "country_code": "AT",
    "zipcode": "7441",
    "place": "Salmannsdorf",
    "state": "Burgenland",
    "state_code": "01",
    "province": "Politischer Bezirk Oberpullendorf",
    "province_code": "108",
    "community": "Pilgersdorf",
    "community_code": "10817",
    "latitude": "47.4167",
    "longitude": "16.3333"
  },
  {
    "country_code": "AT",
    "zipcode": "7441",
    "place": "Pilgersdorf",
    "state": "Burgenland",
    "state_code": "01",
    "province": "Politischer Bezirk Oberpullendorf",
    "province_code": "108",
    "community": "Pilgersdorf",
    "community_code": "10817",
    "latitude": "47.4411",
    "longitude": "16.3492"
  },
  {
    "country_code": "AT",
    "zipcode": "7441",
    "place": "Lebenbrunn",
    "state": "Burgenland",
    "state_code": "01",
    "province": "Politischer Bezirk Oberpullendorf",
    "province_code": "108",
    "community": "Pilgersdorf",
    "community_code": "10817",
    "latitude": "47.4627",
    "longitude": "16.3023"
  },
  {
    "country_code": "AT",
    "zipcode": "7441",
    "place": "Steinbach im Burgenland",
    "state": "Burgenland",
    "state_code": "01",
    "province": "Politischer Bezirk Oberpullendorf",
    "province_code": "108",
    "community": "Pilgersdorf",
    "community_code": "10817",
    "latitude": "47.475",
    "longitude": "16.3166"
  },
  {
    "country_code": "AT",
    "zipcode": "7441",
    "place": "Bubendorf im Burgenland",
    "state": "Burgenland",
    "state_code": "01",
    "province": "Politischer Bezirk Oberpullendorf",
    "province_code": "108",
    "community": "Pilgersdorf",
    "community_code": "10817",
    "latitude": "47.4274",
    "longitude": "16.3466"
  },
  {
    "country_code": "AT",
    "zipcode": "7441",
    "place": "Kogl im Burgenland",
    "state": "Burgenland",
    "state_code": "01",
    "province": "Politischer Bezirk Oberpullendorf",
    "province_code": "108",
    "community": "Pilgersdorf",
    "community_code": "10817",
    "latitude": "47.4453",
    "longitude": "16.2987"
  },
  {
    "country_code": "AT",
    "zipcode": "7441",
    "place": "Deutsch Gerisdorf",
    "state": "Burgenland",
    "state_code": "01",
    "province": "Politischer Bezirk Oberpullendorf",
    "province_code": "108",
    "community": "Pilgersdorf",
    "community_code": "10817",
    "latitude": "47.4167",
    "longitude": "16.3667"
  },
  {
    "country_code": "AT",
    "zipcode": "7442",
    "place": "Hammerteich",
    "state": "Burgenland",
    "state_code": "01",
    "province": "Politischer Bezirk Oberpullendorf",
    "province_code": "108",
    "community": "Lockenhaus",
    "community_code": "10809",
    "latitude": "47.4087",
    "longitude": "16.4437"
  },
  {
    "country_code": "AT",
    "zipcode": "7442",
    "place": "Langeck im Burgenland",
    "state": "Burgenland",
    "state_code": "01",
    "province": "Politischer Bezirk Oberpullendorf",
    "province_code": "108",
    "community": "Lockenhaus",
    "community_code": "10809",
    "latitude": "47.4",
    "longitude": "16.3667"
  },
  {
    "country_code": "AT",
    "zipcode": "7442",
    "place": "Hochstraß",
    "state": "Burgenland",
    "state_code": "01",
    "province": "Politischer Bezirk Oberpullendorf",
    "province_code": "108",
    "community": "Lockenhaus",
    "community_code": "10809",
    "latitude": "47.4287",
    "longitude": "16.4047"
  },
  {
    "country_code": "AT",
    "zipcode": "7442",
    "place": "Lockenhaus",
    "state": "Burgenland",
    "state_code": "01",
    "province": "Politischer Bezirk Oberpullendorf",
    "province_code": "108",
    "community": "Lockenhaus",
    "community_code": "10809",
    "latitude": "47.4075",
    "longitude": "16.4162"
  },
  {
    "country_code": "AT",
    "zipcode": "7442",
    "place": "Glashütten bei Langeck im Burgenland",
    "state": "Burgenland",
    "state_code": "01",
    "province": "Politischer Bezirk Oberpullendorf",
    "province_code": "108",
    "community": "Lockenhaus",
    "community_code": "10809",
    "latitude": "47.3757",
    "longitude": "16.3833"
  },
  {
    "country_code": "AT",
    "zipcode": "7443",
    "place": "Rattersdorf",
    "state": "Burgenland",
    "state_code": "01",
    "province": "Politischer Bezirk Oberpullendorf",
    "province_code": "108",
    "community": "Mannersdorf an der Rabnitz",
    "community_code": "10811",
    "latitude": "47.4078",
    "longitude": "16.498"
  },
  {
    "country_code": "AT",
    "zipcode": "7443",
    "place": "Liebing",
    "state": "Burgenland",
    "state_code": "01",
    "province": "Politischer Bezirk Oberpullendorf",
    "province_code": "108",
    "community": "Mannersdorf an der Rabnitz",
    "community_code": "10811",
    "latitude": "47.4136",
    "longitude": "16.4945"
  },
  {
    "country_code": "AT",
    "zipcode": "7444",
    "place": "Mannersdorf an der Rabnitz",
    "state": "Burgenland",
    "state_code": "01",
    "province": "Politischer Bezirk Oberpullendorf",
    "province_code": "108",
    "community": "Mannersdorf an der Rabnitz",
    "community_code": "10811",
    "latitude": "47.4281",
    "longitude": "16.5268"
  },
  {
    "country_code": "AT",
    "zipcode": "7444",
    "place": "Unterloisdorf",
    "state": "Burgenland",
    "state_code": "01",
    "province": "Politischer Bezirk Oberpullendorf",
    "province_code": "108",
    "community": "Mannersdorf an der Rabnitz",
    "community_code": "10811",
    "latitude": "47.4367",
    "longitude": "16.5328"
  },
  {
    "country_code": "AT",
    "zipcode": "7444",
    "place": "Klostermarienberg",
    "state": "Burgenland",
    "state_code": "01",
    "province": "Politischer Bezirk Oberpullendorf",
    "province_code": "108",
    "community": "Mannersdorf an der Rabnitz",
    "community_code": "10811",
    "latitude": "47.4219",
    "longitude": "16.5627"
  },
  {
    "country_code": "AT",
    "zipcode": "7451",
    "place": "Oberloisdorf",
    "state": "Burgenland",
    "state_code": "01",
    "province": "Politischer Bezirk Oberpullendorf",
    "province_code": "108",
    "community": "Oberloisdorf",
    "community_code": "10828",
    "latitude": "47.4474",
    "longitude": "16.5076"
  },
  {
    "country_code": "AT",
    "zipcode": "7452",
    "place": "Kleinmutschen / Pervane",
    "state": "Burgenland",
    "state_code": "01",
    "province": "Politischer Bezirk Oberpullendorf",
    "province_code": "108",
    "community": "Frankenau-Unterpullendorf",
    "community_code": "10803",
    "latitude": "47.463",
    "longitude": "16.5747"
  },
  {
    "country_code": "AT",
    "zipcode": "7452",
    "place": "Großmutschen / Mucindrof",
    "state": "Burgenland",
    "state_code": "01",
    "province": "Politischer Bezirk Oberpullendorf",
    "province_code": "108",
    "community": "Frankenau-Unterpullendorf",
    "community_code": "10803",
    "latitude": "47.4667",
    "longitude": "16.5833"
  },
  {
    "country_code": "AT",
    "zipcode": "7452",
    "place": "Unterpullendorf / Dolnja Pulja",
    "state": "Burgenland",
    "state_code": "01",
    "province": "Politischer Bezirk Oberpullendorf",
    "province_code": "108",
    "community": "Frankenau-Unterpullendorf",
    "community_code": "10803",
    "latitude": "47.4753",
    "longitude": "16.5402"
  },
  {
    "country_code": "AT",
    "zipcode": "7453",
    "place": "Dörfl",
    "state": "Burgenland",
    "state_code": "01",
    "province": "Politischer Bezirk Oberpullendorf",
    "province_code": "108",
    "community": "Steinberg-Dörfl",
    "community_code": "10821",
    "latitude": "47.4833",
    "longitude": "16.4833"
  },
  {
    "country_code": "AT",
    "zipcode": "7453",
    "place": "Steinberg",
    "state": "Burgenland",
    "state_code": "01",
    "province": "Politischer Bezirk Oberpullendorf",
    "province_code": "108",
    "community": "Steinberg-Dörfl",
    "community_code": "10821",
    "latitude": "47.4743",
    "longitude": "16.4876"
  },
  {
    "country_code": "AT",
    "zipcode": "2852",
    "place": "Dreihütten",
    "state": "Burgenland",
    "state_code": "01",
    "province": "Politischer Bezirk Oberwart",
    "province_code": "109",
    "community": "Bernstein",
    "community_code": "10902",
    "latitude": "47.4207",
    "longitude": "16.2199"
  },
  {
    "country_code": "AT",
    "zipcode": "2852",
    "place": "Aschau im Burgenland",
    "state": "Burgenland",
    "state_code": "01",
    "province": "Politischer Bezirk Oberwart",
    "province_code": "109",
    "community": "Oberschützen",
    "community_code": "10916",
    "latitude": "47.4",
    "longitude": "16.2"
  },
  {
    "country_code": "AT",
    "zipcode": "7400",
    "place": "Oberwart / Felsöör",
    "state": "Burgenland",
    "state_code": "01",
    "province": "Politischer Bezirk Oberwart",
    "province_code": "109",
    "community": "Oberwart",
    "community_code": "10917",
    "latitude": "47.3214",
    "longitude": "16.2248"
  },
  {
    "country_code": "AT",
    "zipcode": "7400",
    "place": "Unterschützen",
    "state": "Burgenland",
    "state_code": "01",
    "province": "Politischer Bezirk Oberwart",
    "province_code": "109",
    "community": "Oberschützen",
    "community_code": "10916",
    "latitude": "47.3189",
    "longitude": "16.2037"
  },
  {
    "country_code": "AT",
    "zipcode": "7400",
    "place": "Sankt Martin in der Wart",
    "state": "Burgenland",
    "state_code": "01",
    "province": "Politischer Bezirk Oberwart",
    "province_code": "109",
    "community": "Oberwart",
    "community_code": "10917",
    "latitude": "47.2988",
    "longitude": "16.2381"
  },
  {
    "country_code": "AT",
    "zipcode": "7400",
    "place": "Oberschützen",
    "state": "Burgenland",
    "state_code": "01",
    "province": "Politischer Bezirk Oberwart",
    "province_code": "109",
    "community": "Oberschützen",
    "community_code": "10916",
    "latitude": "47.3514",
    "longitude": "16.2073"
  },
  {
    "country_code": "AT",
    "zipcode": "7400",
    "place": "Drumling",
    "state": "Burgenland",
    "state_code": "01",
    "province": "Politischer Bezirk Oberwart",
    "province_code": "109",
    "community": "Stadtschlaining",
    "community_code": "10923",
    "latitude": "47.3167",
    "longitude": "16.25"
  },
  {
    "country_code": "AT",
    "zipcode": "7410",
    "place": "Loipersdorf im Burgenland",
    "state": "Burgenland",
    "state_code": "01",
    "province": "Politischer Bezirk Oberwart",
    "province_code": "109",
    "community": "Loipersdorf-Kitzladen",
    "community_code": "10910",
    "latitude": "47.3333",
    "longitude": "16.0833"
  },
  {
    "country_code": "AT",
    "zipcode": "7410",
    "place": "Kitzladen",
    "state": "Burgenland",
    "state_code": "01",
    "province": "Politischer Bezirk Oberwart",
    "province_code": "109",
    "community": "Loipersdorf-Kitzladen",
    "community_code": "10910",
    "latitude": "47.3167",
    "longitude": "16.0667"
  },
  {
    "country_code": "AT",
    "zipcode": "7411",
    "place": "Buchschachen",
    "state": "Burgenland",
    "state_code": "01",
    "province": "Politischer Bezirk Oberwart",
    "province_code": "109",
    "community": "Markt Allhau",
    "community_code": "10912",
    "latitude": "47.3167",
    "longitude": "16.1"
  },
  {
    "country_code": "AT",
    "zipcode": "7411",
    "place": "Markt Allhau",
    "state": "Burgenland",
    "state_code": "01",
    "province": "Politischer Bezirk Oberwart",
    "province_code": "109",
    "community": "Markt Allhau",
    "community_code": "10912",
    "latitude": "47.2833",
    "longitude": "16.0833"
  },
  {
    "country_code": "AT",
    "zipcode": "7412",
    "place": "Wolfau",
    "state": "Burgenland",
    "state_code": "01",
    "province": "Politischer Bezirk Oberwart",
    "province_code": "109",
    "community": "Wolfau",
    "community_code": "10928",
    "latitude": "47.25",
    "longitude": "16.1"
  },
  {
    "country_code": "AT",
    "zipcode": "7422",
    "place": "Riedlingsdorf",
    "state": "Burgenland",
    "state_code": "01",
    "province": "Politischer Bezirk Oberwart",
    "province_code": "109",
    "community": "Riedlingsdorf",
    "community_code": "10920",
    "latitude": "47.35",
    "longitude": "16.1333"
  },
  {
    "country_code": "AT",
    "zipcode": "7423",
    "place": "Schönherrn",
    "state": "Burgenland",
    "state_code": "01",
    "province": "Politischer Bezirk Oberwart",
    "province_code": "109",
    "community": "Wiesfleck",
    "community_code": "10927",
    "latitude": "47.4167",
    "longitude": "16.1667"
  },
  {
    "country_code": "AT",
    "zipcode": "7423",
    "place": "Neustift an der Lafnitz",
    "state": "Burgenland",
    "state_code": "01",
    "province": "Politischer Bezirk Oberwart",
    "province_code": "109",
    "community": "Neustift an der Lafnitz",
    "community_code": "10929",
    "latitude": "47.3667",
    "longitude": "16.0333"
  },
  {
    "country_code": "AT",
    "zipcode": "7423",
    "place": "Schreibersdorf",
    "state": "Burgenland",
    "state_code": "01",
    "province": "Politischer Bezirk Oberwart",
    "province_code": "109",
    "community": "Wiesfleck",
    "community_code": "10927",
    "latitude": "47.4",
    "longitude": "16.15"
  },
  {
    "country_code": "AT",
    "zipcode": "7423",
    "place": "Pinkafeld",
    "state": "Burgenland",
    "state_code": "01",
    "province": "Politischer Bezirk Oberwart",
    "province_code": "109",
    "community": "Pinkafeld",
    "community_code": "10918",
    "latitude": "47.3667",
    "longitude": "16.1167"
  },
  {
    "country_code": "AT",
    "zipcode": "7423",
    "place": "Grafenschachen",
    "state": "Burgenland",
    "state_code": "01",
    "province": "Politischer Bezirk Oberwart",
    "province_code": "109",
    "community": "Grafenschachen",
    "community_code": "10904",
    "latitude": "47.3667",
    "longitude": "16.0667"
  },
  {
    "country_code": "AT",
    "zipcode": "7423",
    "place": "Weinberg im Burgenland",
    "state": "Burgenland",
    "state_code": "01",
    "province": "Politischer Bezirk Oberwart",
    "province_code": "109",
    "community": "Wiesfleck",
    "community_code": "10927",
    "latitude": "47.3909",
    "longitude": "16.1669"
  },
  {
    "country_code": "AT",
    "zipcode": "7423",
    "place": "Kroisegg",
    "state": "Burgenland",
    "state_code": "01",
    "province": "Politischer Bezirk Oberwart",
    "province_code": "109",
    "community": "Grafenschachen",
    "community_code": "10904",
    "latitude": "47.3785",
    "longitude": "16.0375"
  },
  {
    "country_code": "AT",
    "zipcode": "7423",
    "place": "Hochart",
    "state": "Burgenland",
    "state_code": "01",
    "province": "Politischer Bezirk Oberwart",
    "province_code": "109",
    "community": "Pinkafeld",
    "community_code": "10918",
    "latitude": "47.4",
    "longitude": "16.1167"
  },
  {
    "country_code": "AT",
    "zipcode": "7423",
    "place": "Wiesfleck",
    "state": "Burgenland",
    "state_code": "01",
    "province": "Politischer Bezirk Oberwart",
    "province_code": "109",
    "community": "Wiesfleck",
    "community_code": "10927",
    "latitude": "47.3833",
    "longitude": "16.1333"
  },
  {
    "country_code": "AT",
    "zipcode": "7431",
    "place": "Sulzriegel",
    "state": "Burgenland",
    "state_code": "01",
    "province": "Politischer Bezirk Oberwart",
    "province_code": "109",
    "community": "Bad Tatzmannsdorf",
    "community_code": "10901",
    "latitude": "47.3333",
    "longitude": "16.2333"
  },
  {
    "country_code": "AT",
    "zipcode": "7431",
    "place": "Jormannsdorf",
    "state": "Burgenland",
    "state_code": "01",
    "province": "Politischer Bezirk Oberwart",
    "province_code": "109",
    "community": "Bad Tatzmannsdorf",
    "community_code": "10901",
    "latitude": "47.35",
    "longitude": "16.2167"
  },
  {
    "country_code": "AT",
    "zipcode": "7431",
    "place": "Bad Tatzmannsdorf",
    "state": "Burgenland",
    "state_code": "01",
    "province": "Politischer Bezirk Oberwart",
    "province_code": "109",
    "community": "Bad Tatzmannsdorf",
    "community_code": "10901",
    "latitude": "47.3823",
    "longitude": "16.2523"
  },
  {
    "country_code": "AT",
    "zipcode": "7431",
    "place": "Oberschützen",
    "state": "Burgenland",
    "state_code": "01",
    "province": "Politischer Bezirk Oberwart",
    "province_code": "109",
    "community": "Oberschützen",
    "community_code": "10916",
    "latitude": "47.3514",
    "longitude": "16.2073"
  },
  {
    "country_code": "AT",
    "zipcode": "7432",
    "place": "Schmiedrait",
    "state": "Burgenland",
    "state_code": "01",
    "province": "Politischer Bezirk Oberwart",
    "province_code": "109",
    "community": "Oberschützen",
    "community_code": "10916",
    "latitude": "47.4167",
    "longitude": "16.1833"
  },
  {
    "country_code": "AT",
    "zipcode": "7432",
    "place": "Willersdorf",
    "state": "Burgenland",
    "state_code": "01",
    "province": "Politischer Bezirk Oberwart",
    "province_code": "109",
    "community": "Oberschützen",
    "community_code": "10916",
    "latitude": "47.3667",
    "longitude": "16.2"
  },
  {
    "country_code": "AT",
    "zipcode": "7432",
    "place": "Aschau im Burgenland",
    "state": "Burgenland",
    "state_code": "01",
    "province": "Politischer Bezirk Oberwart",
    "province_code": "109",
    "community": "Oberschützen",
    "community_code": "10916",
    "latitude": "47.4",
    "longitude": "16.2"
  },
  {
    "country_code": "AT",
    "zipcode": "7432",
    "place": "Oberschützen",
    "state": "Burgenland",
    "state_code": "01",
    "province": "Politischer Bezirk Oberwart",
    "province_code": "109",
    "community": "Oberschützen",
    "community_code": "10916",
    "latitude": "47.3514",
    "longitude": "16.2073"
  },
  {
    "country_code": "AT",
    "zipcode": "7433",
    "place": "Grodnau",
    "state": "Burgenland",
    "state_code": "01",
    "province": "Politischer Bezirk Oberwart",
    "province_code": "109",
    "community": "Mariasdorf",
    "community_code": "10911",
    "latitude": "47.3833",
    "longitude": "16.2667"
  },
  {
    "country_code": "AT",
    "zipcode": "7433",
    "place": "Bergwerk",
    "state": "Burgenland",
    "state_code": "01",
    "province": "Politischer Bezirk Oberwart",
    "province_code": "109",
    "community": "Mariasdorf",
    "community_code": "10911",
    "latitude": "47.3667",
    "longitude": "16.25"
  },
  {
    "country_code": "AT",
    "zipcode": "7433",
    "place": "Mariasdorf",
    "state": "Burgenland",
    "state_code": "01",
    "province": "Politischer Bezirk Oberwart",
    "province_code": "109",
    "community": "Mariasdorf",
    "community_code": "10911",
    "latitude": "47.3658",
    "longitude": "16.2314"
  },
  {
    "country_code": "AT",
    "zipcode": "7433",
    "place": "Neustift bei Schlaining",
    "state": "Burgenland",
    "state_code": "01",
    "province": "Politischer Bezirk Oberwart",
    "province_code": "109",
    "community": "Mariasdorf",
    "community_code": "10911",
    "latitude": "47.35",
    "longitude": "16.25"
  },
  {
    "country_code": "AT",
    "zipcode": "7433",
    "place": "Tauchen",
    "state": "Burgenland",
    "state_code": "01",
    "province": "Politischer Bezirk Oberwart",
    "province_code": "109",
    "community": "Mariasdorf",
    "community_code": "10911",
    "latitude": "47.4",
    "longitude": "16.2167"
  },
  {
    "country_code": "AT",
    "zipcode": "7434",
    "place": "Bernstein",
    "state": "Burgenland",
    "state_code": "01",
    "province": "Politischer Bezirk Oberwart",
    "province_code": "109",
    "community": "Bernstein",
    "community_code": "10902",
    "latitude": "47.4",
    "longitude": "16.25"
  },
  {
    "country_code": "AT",
    "zipcode": "7434",
    "place": "Dreihütten",
    "state": "Burgenland",
    "state_code": "01",
    "province": "Politischer Bezirk Oberwart",
    "province_code": "109",
    "community": "Bernstein",
    "community_code": "10902",
    "latitude": "47.4207",
    "longitude": "16.2199"
  },
  {
    "country_code": "AT",
    "zipcode": "7434",
    "place": "Rettenbach",
    "state": "Burgenland",
    "state_code": "01",
    "province": "Politischer Bezirk Oberwart",
    "province_code": "109",
    "community": "Bernstein",
    "community_code": "10902",
    "latitude": "47.4",
    "longitude": "16.2333"
  },
  {
    "country_code": "AT",
    "zipcode": "7434",
    "place": "Redlschlag",
    "state": "Burgenland",
    "state_code": "01",
    "province": "Politischer Bezirk Oberwart",
    "province_code": "109",
    "community": "Bernstein",
    "community_code": "10902",
    "latitude": "47.4408",
    "longitude": "16.2879"
  },
  {
    "country_code": "AT",
    "zipcode": "7434",
    "place": "Stuben",
    "state": "Burgenland",
    "state_code": "01",
    "province": "Politischer Bezirk Oberwart",
    "province_code": "109",
    "community": "Bernstein",
    "community_code": "10902",
    "latitude": "47.4306",
    "longitude": "16.2487"
  },
  {
    "country_code": "AT",
    "zipcode": "7434",
    "place": "Holzschlag",
    "state": "Burgenland",
    "state_code": "01",
    "province": "Politischer Bezirk Oberwart",
    "province_code": "109",
    "community": "Unterkohlstätten",
    "community_code": "10924",
    "latitude": "47.3833",
    "longitude": "16.3"
  },
  {
    "country_code": "AT",
    "zipcode": "7435",
    "place": "Günseck",
    "state": "Burgenland",
    "state_code": "01",
    "province": "Politischer Bezirk Oberwart",
    "province_code": "109",
    "community": "Unterkohlstätten",
    "community_code": "10924",
    "latitude": "47.4",
    "longitude": "16.3167"
  },